[
  {
    "title": "Family Friendly restaurant Coming to Abingdon, MD | Nash & Smashed",
    "seo_friendly_url": "family-friendly-restaurant/abingdon-md",
    "keyword": "Family Friendly restaurant",
    "location": "Abingdon MD",
    "id": 483,
    "city": "Abingdon",
    "state": "MD"
  },
  {
    "title": "Best Nashville Sandwiches Coming to Arlington, VA | Nash & Smashed",
    "seo_friendly_url": "best-nashville-sandwiches/arlington-va",
    "keyword": "Best Nashville Sandwiches",
    "location": "Arlington VA",
    "id": 482,
    "city": "Arlington",
    "state": "VA"
  },
  {
    "title": "Best Smashed Burgers Coming to Alexandria, VA | Nash & Smashed",
    "seo_friendly_url": "best-smashed-burgers/alexandria-va",
    "keyword": "Best Smashed Burgers",
    "location": "Alexandria VA",
    "id": 481,
    "city": "Alexandria",
    "state": "VA"
  },
  {
    "title": "Best Milk Shakes Coming to Lanham, MD | Nash & Smashed",
    "seo_friendly_url": "best-milk-shakes/lanham-md",
    "keyword": "Best Milk Shakes",
    "location": "Lanham MD",
    "id": 480,
    "city": "Lanham",
    "state": "MD"
  },
  {
    "title": "Finger Licking Fried Chicken Coming to Arlington, VA | Nash & Smashed",
    "seo_friendly_url": "finger-licking-fried-chicken/arlington-va",
    "keyword": "Finger Licking Fried Chicken",
    "location": "Arlington VA",
    "id": 479,
    "city": "Arlington",
    "state": "VA"
  },
  {
    "title": "Finger Licking Fried Chicken Coming to Temple Hills, MD | Nash & Smashed",
    "seo_friendly_url": "finger-licking-fried-chicken/temple-hills-md",
    "keyword": "Finger Licking Fried Chicken",
    "location": "Temple Hills MD",
    "id": 478,
    "city": "Temple Hills",
    "state": "MD"
  },
  {
    "title": "Best Halal Restaurant Coming to Manassas Park, VA | Nash & Smashed",
    "seo_friendly_url": "best-halal-restaurant/manassas-park-va",
    "keyword": "Best Halal Restaurant",
    "location": "Manassas Park VA",
    "id": 477,
    "city": "Manassas Park",
    "state": "VA"
  },
  {
    "title": "Best Chicken Tenders Coming to District Heights, MD | Nash & Smashed",
    "seo_friendly_url": "best-chicken-tenders/district-heights-md",
    "keyword": "Best Chicken Tenders",
    "location": "District Heights MD",
    "id": 476,
    "city": "District Heights",
    "state": "MD"
  },
  {
    "title": "Best in Town Fried chicken & Burgers Coming to Woodbridge, VA | Nash & Smashed",
    "seo_friendly_url": "best-in-town-fried-chicken-burgers/woodbridge-va",
    "keyword": "Best in Town Fried chicken & Burgers",
    "location": "Woodbridge VA",
    "id": 475,
    "city": "Woodbridge",
    "state": "VA"
  },
  {
    "title": "Quick Bites Coming to Warrenton, VA | Nash & Smashed",
    "seo_friendly_url": "quick-bites/warrenton-va",
    "keyword": "Quick Bites",
    "location": "Warrenton VA",
    "id": 474,
    "city": "Warrenton",
    "state": "VA"
  },
  {
    "title": "Open Till Late Coming to District Heights, MD | Nash & Smashed",
    "seo_friendly_url": "open-till-late/district-heights-md",
    "keyword": "Open Till Late",
    "location": "District Heights MD",
    "id": 473,
    "city": "District Heights",
    "state": "MD"
  },
  {
    "title": "Best Nashville Sandwiches Coming to Abingdon, MD | Nash & Smashed",
    "seo_friendly_url": "best-nashville-sandwiches/abingdon-md",
    "keyword": "Best Nashville Sandwiches",
    "location": "Abingdon MD",
    "id": 472,
    "city": "Abingdon",
    "state": "MD"
  },
  {
    "title": "Halal Desi Restaurant Coming to Woodbridge, VA | Nash & Smashed",
    "seo_friendly_url": "halal-desi-restaurant/woodbridge-va",
    "keyword": "Halal Desi Restaurant",
    "location": "Woodbridge VA",
    "id": 471,
    "city": "Woodbridge",
    "state": "VA"
  },
  {
    "title": "Best fried Chicken Coming to Lanham, MD | Nash & Smashed",
    "seo_friendly_url": "best-fried-chicken/lanham-md",
    "keyword": "Best fried Chicken",
    "location": "Lanham MD",
    "id": 470,
    "city": "Lanham",
    "state": "MD"
  },
  {
    "title": "Best waffles in town Coming to Abingdon, MD | Nash & Smashed",
    "seo_friendly_url": "best-waffles-in-town/abingdon-md",
    "keyword": "Best waffles in town",
    "location": "Abingdon MD",
    "id": 469,
    "city": "Abingdon",
    "state": "MD"
  },
  {
    "title": "Best Milk Shakes Coming to Abingdon, MD | Nash & Smashed",
    "seo_friendly_url": "best-milk-shakes/abingdon-md",
    "keyword": "Best Milk Shakes",
    "location": "Abingdon MD",
    "id": 468,
    "city": "Abingdon",
    "state": "MD"
  },
  {
    "title": "Best Halal Restaurant Coming to Reston, VA | Nash & Smashed",
    "seo_friendly_url": "best-halal-restaurant/reston-va",
    "keyword": "Best Halal Restaurant",
    "location": "Reston VA",
    "id": 467,
    "city": "Reston",
    "state": "VA"
  },
  {
    "title": "Gourmet Burgers Restaurant Coming to Abingdon, MD | Nash & Smashed",
    "seo_friendly_url": "gourmet-burgers-restaurant/abingdon-md",
    "keyword": "Gourmet Burgers Restaurant",
    "location": "Abingdon MD",
    "id": 466,
    "city": "Abingdon",
    "state": "MD"
  },
  {
    "title": "Best fried Chicken Coming to District Heights, MD | Nash & Smashed",
    "seo_friendly_url": "best-fried-chicken/district-heights-md",
    "keyword": "Best fried Chicken",
    "location": "District Heights MD",
    "id": 465,
    "city": "District Heights",
    "state": "MD"
  },
  {
    "title": "Best Chicken Wings Coming to District Heights, MD | Nash & Smashed",
    "seo_friendly_url": "best-chicken-wings/district-heights-md",
    "keyword": "Best Chicken Wings",
    "location": "District Heights MD",
    "id": 464,
    "city": "District Heights",
    "state": "MD"
  },
  {
    "title": "Best waffles in town Coming to Alexandria, VA | Nash & Smashed",
    "seo_friendly_url": "best-waffles-in-town/alexandria-va",
    "keyword": "Best waffles in town",
    "location": "Alexandria VA",
    "id": 463,
    "city": "Alexandria",
    "state": "VA"
  },
  {
    "title": "Craft Mocktails Coming to Glen Allen, VA | Nash & Smashed",
    "seo_friendly_url": "craft-mocktails/glen-allen-va",
    "keyword": "Craft Mocktails",
    "location": "Glen Allen VA",
    "id": 462,
    "city": "Glen Allen",
    "state": "VA"
  },
  {
    "title": "Halal Fried Chicken Coming to Southeast, DC | Nash & Smashed",
    "seo_friendly_url": "halal-fried-chicken/southeast-dc",
    "keyword": "Halal Fried Chicken",
    "location": "Southeast DC",
    "id": 461,
    "city": "Southeast",
    "state": "DC"
  },
  {
    "title": "Best in Town Fried chicken & Burgers Coming to Alexandria, VA | Nash & Smashed",
    "seo_friendly_url": "best-in-town-fried-chicken-burgers/alexandria-va",
    "keyword": "Best in Town Fried chicken & Burgers",
    "location": "Alexandria VA",
    "id": 460,
    "city": "Alexandria",
    "state": "VA"
  },
  {
    "title": "Halal American Restaurant Coming to District Heights, MD | Nash & Smashed",
    "seo_friendly_url": "halal-american-restaurant/district-heights-md",
    "keyword": "Halal American Restaurant",
    "location": "District Heights MD",
    "id": 459,
    "city": "District Heights",
    "state": "MD"
  },
  {
    "title": "Quick Bites Coming to Lorton, VA | Nash & Smashed",
    "seo_friendly_url": "quick-bites/lorton-va",
    "keyword": "Quick Bites",
    "location": "Lorton VA",
    "id": 458,
    "city": "Lorton",
    "state": "VA"
  },
  {
    "title": "Gourmet Burgers Restaurant Coming to Reston, VA | Nash & Smashed",
    "seo_friendly_url": "gourmet-burgers-restaurant/reston-va",
    "keyword": "Gourmet Burgers Restaurant",
    "location": "Reston VA",
    "id": 457,
    "city": "Reston",
    "state": "VA"
  },
  {
    "title": "Best in Town Fried chicken & Burgers Coming to Temple Hills, MD | Nash & Smashed",
    "seo_friendly_url": "best-in-town-fried-chicken-burgers/temple-hills-md",
    "keyword": "Best in Town Fried chicken & Burgers",
    "location": "Temple Hills MD",
    "id": 456,
    "city": "Temple Hills",
    "state": "MD"
  },
  {
    "title": "Best Nashville Sandwiches Coming to Woodbridge, VA | Nash & Smashed",
    "seo_friendly_url": "best-nashville-sandwiches/woodbridge-va",
    "keyword": "Best Nashville Sandwiches",
    "location": "Woodbridge VA",
    "id": 455,
    "city": "Woodbridge",
    "state": "VA"
  },
  {
    "title": "Best Milk Shakes Coming to Lorton, VA | Nash & Smashed",
    "seo_friendly_url": "best-milk-shakes/lorton-va",
    "keyword": "Best Milk Shakes",
    "location": "Lorton VA",
    "id": 454,
    "city": "Lorton",
    "state": "VA"
  },
  {
    "title": "Quick Bites Coming to Lanham, MD | Nash & Smashed",
    "seo_friendly_url": "quick-bites/lanham-md",
    "keyword": "Quick Bites",
    "location": "Lanham MD",
    "id": 453,
    "city": "Lanham",
    "state": "MD"
  },
  {
    "title": "Best Chicken Tenders Coming to Reston, VA | Nash & Smashed",
    "seo_friendly_url": "best-chicken-tenders/reston-va",
    "keyword": "Best Chicken Tenders",
    "location": "Reston VA",
    "id": 452,
    "city": "Reston",
    "state": "VA"
  },
  {
    "title": "Best Milk Shakes Coming to Glen Allen, VA | Nash & Smashed",
    "seo_friendly_url": "best-milk-shakes/glen-allen-va",
    "keyword": "Best Milk Shakes",
    "location": "Glen Allen VA",
    "id": 451,
    "city": "Glen Allen",
    "state": "VA"
  },
  {
    "title": "Quick Bites Coming to H St NE, DC | Nash & Smashed",
    "seo_friendly_url": "quick-bites/h-st-ne-dc",
    "keyword": "Quick Bites",
    "location": "H St NE DC",
    "id": 450,
    "city": "H St NE",
    "state": "DC"
  },
  {
    "title": "Craft Mocktails Coming to Temple Hills, MD | Nash & Smashed",
    "seo_friendly_url": "craft-mocktails/temple-hills-md",
    "keyword": "Craft Mocktails",
    "location": "Temple Hills MD",
    "id": 449,
    "city": "Temple Hills",
    "state": "MD"
  },
  {
    "title": "Best Nashville Sandwiches Coming to Alexandria, VA | Nash & Smashed",
    "seo_friendly_url": "best-nashville-sandwiches/alexandria-va",
    "keyword": "Best Nashville Sandwiches",
    "location": "Alexandria VA",
    "id": 448,
    "city": "Alexandria",
    "state": "VA"
  },
  {
    "title": "Best waffles in town Coming to Michigan Ave NE, DC | Nash & Smashed",
    "seo_friendly_url": "best-waffles-in-town/michigan-ave-ne-dc",
    "keyword": "Best waffles in town",
    "location": "Michigan Ave NE DC",
    "id": 447,
    "city": "Michigan Ave NE",
    "state": "DC"
  },
  {
    "title": "Best in Town Fried chicken & Burgers Coming to Michigan Ave NE, DC | Nash & Smashed",
    "seo_friendly_url": "best-in-town-fried-chicken-burgers/michigan-ave-ne-dc",
    "keyword": "Best in Town Fried chicken & Burgers",
    "location": "Michigan Ave NE DC",
    "id": 446,
    "city": "Michigan Ave NE",
    "state": "DC"
  },
  {
    "title": "Best Smashed Burgers Coming to Woodbridge, VA | Nash & Smashed",
    "seo_friendly_url": "best-smashed-burgers/woodbridge-va",
    "keyword": "Best Smashed Burgers",
    "location": "Woodbridge VA",
    "id": 445,
    "city": "Woodbridge",
    "state": "VA"
  },
  {
    "title": "Halal Fried Chicken Coming to Arlington, VA | Nash & Smashed",
    "seo_friendly_url": "halal-fried-chicken/arlington-va",
    "keyword": "Halal Fried Chicken",
    "location": "Arlington VA",
    "id": 444,
    "city": "Arlington",
    "state": "VA"
  },
  {
    "title": "Open Till Late Coming to Woodbridge, VA | Nash & Smashed",
    "seo_friendly_url": "open-till-late/woodbridge-va",
    "keyword": "Open Till Late",
    "location": "Woodbridge VA",
    "id": 443,
    "city": "Woodbridge",
    "state": "VA"
  },
  {
    "title": "Halal Fried Chicken Coming to District Heights, MD | Nash & Smashed",
    "seo_friendly_url": "halal-fried-chicken/district-heights-md",
    "keyword": "Halal Fried Chicken",
    "location": "District Heights MD",
    "id": 442,
    "city": "District Heights",
    "state": "MD"
  },
  {
    "title": "Craft Mocktails Coming to Michigan Ave NE, DC | Nash & Smashed",
    "seo_friendly_url": "craft-mocktails/michigan-ave-ne-dc",
    "keyword": "Craft Mocktails",
    "location": "Michigan Ave NE DC",
    "id": 441,
    "city": "Michigan Ave NE",
    "state": "DC"
  },
  {
    "title": "Family Friendly restaurant Coming to Glen Allen, VA | Nash & Smashed",
    "seo_friendly_url": "family-friendly-restaurant/glen-allen-va",
    "keyword": "Family Friendly restaurant",
    "location": "Glen Allen VA",
    "id": 440,
    "city": "Glen Allen",
    "state": "VA"
  },
  {
    "title": "Best Chicken Wings Coming to Warrenton, VA | Nash & Smashed",
    "seo_friendly_url": "best-chicken-wings/warrenton-va",
    "keyword": "Best Chicken Wings",
    "location": "Warrenton VA",
    "id": 439,
    "city": "Warrenton",
    "state": "VA"
  },
  {
    "title": "Halal Fried Chicken Coming to Lorton, VA | Nash & Smashed",
    "seo_friendly_url": "halal-fried-chicken/lorton-va",
    "keyword": "Halal Fried Chicken",
    "location": "Lorton VA",
    "id": 438,
    "city": "Lorton",
    "state": "VA"
  },
  {
    "title": "Halal Burgers Coming to Reston, VA | Nash & Smashed",
    "seo_friendly_url": "halal-burgers/reston-va",
    "keyword": "Halal Burgers",
    "location": "Reston VA",
    "id": 437,
    "city": "Reston",
    "state": "VA"
  },
  {
    "title": "Best Nashville Sandwiches Coming to Temple Hills, MD | Nash & Smashed",
    "seo_friendly_url": "best-nashville-sandwiches/temple-hills-md",
    "keyword": "Best Nashville Sandwiches",
    "location": "Temple Hills MD",
    "id": 436,
    "city": "Temple Hills",
    "state": "MD"
  },
  {
    "title": "Halal American Restaurant Coming to Manassas Park, VA | Nash & Smashed",
    "seo_friendly_url": "halal-american-restaurant/manassas-park-va",
    "keyword": "Halal American Restaurant",
    "location": "Manassas Park VA",
    "id": 435,
    "city": "Manassas Park",
    "state": "VA"
  },
  {
    "title": "Halal Burgers Coming to Southeast, DC | Nash & Smashed",
    "seo_friendly_url": "halal-burgers/southeast-dc",
    "keyword": "Halal Burgers",
    "location": "Southeast DC",
    "id": 434,
    "city": "Southeast",
    "state": "DC"
  },
  {
    "title": "Gourmet Burgers Restaurant Coming to Warrenton, VA | Nash & Smashed",
    "seo_friendly_url": "gourmet-burgers-restaurant/warrenton-va",
    "keyword": "Gourmet Burgers Restaurant",
    "location": "Warrenton VA",
    "id": 433,
    "city": "Warrenton",
    "state": "VA"
  },
  {
    "title": "Quick Bites Coming to Glen Allen, VA | Nash & Smashed",
    "seo_friendly_url": "quick-bites/glen-allen-va",
    "keyword": "Quick Bites",
    "location": "Glen Allen VA",
    "id": 432,
    "city": "Glen Allen",
    "state": "VA"
  },
  {
    "title": "Halal Desi Restaurant Coming to Glen Allen, VA | Nash & Smashed",
    "seo_friendly_url": "halal-desi-restaurant/glen-allen-va",
    "keyword": "Halal Desi Restaurant",
    "location": "Glen Allen VA",
    "id": 431,
    "city": "Glen Allen",
    "state": "VA"
  },
  {
    "title": "Craft Mocktails Coming to Manassas Park, VA | Nash & Smashed",
    "seo_friendly_url": "craft-mocktails/manassas-park-va",
    "keyword": "Craft Mocktails",
    "location": "Manassas Park VA",
    "id": 430,
    "city": "Manassas Park",
    "state": "VA"
  },
  {
    "title": "Halal Fried Chicken Coming to Abingdon, MD | Nash & Smashed",
    "seo_friendly_url": "halal-fried-chicken/abingdon-md",
    "keyword": "Halal Fried Chicken",
    "location": "Abingdon MD",
    "id": 429,
    "city": "Abingdon",
    "state": "MD"
  },
  {
    "title": "Best Halal Restaurant Coming to Woodbridge, VA | Nash & Smashed",
    "seo_friendly_url": "best-halal-restaurant/woodbridge-va",
    "keyword": "Best Halal Restaurant",
    "location": "Woodbridge VA",
    "id": 428,
    "city": "Woodbridge",
    "state": "VA"
  },
  {
    "title": "Best Smashed Burgers Coming to H St NE, DC | Nash & Smashed",
    "seo_friendly_url": "best-smashed-burgers/h-st-ne-dc",
    "keyword": "Best Smashed Burgers",
    "location": "H St NE DC",
    "id": 427,
    "city": "H St NE",
    "state": "DC"
  },
  {
    "title": "Family Friendly restaurant Coming to H St NE, DC | Nash & Smashed",
    "seo_friendly_url": "family-friendly-restaurant/h-st-ne-dc",
    "keyword": "Family Friendly restaurant",
    "location": "H St NE DC",
    "id": 426,
    "city": "H St NE",
    "state": "DC"
  },
  {
    "title": "Best waffles in town Coming to District Heights, MD | Nash & Smashed",
    "seo_friendly_url": "best-waffles-in-town/district-heights-md",
    "keyword": "Best waffles in town",
    "location": "District Heights MD",
    "id": 425,
    "city": "District Heights",
    "state": "MD"
  },
  {
    "title": "Dine in & Takeout Restaurant Coming to Michigan Ave NE, DC | Nash & Smashed",
    "seo_friendly_url": "dine-in-takeout-restaurant/michigan-ave-ne-dc",
    "keyword": "Dine in & Takeout Restaurant",
    "location": "Michigan Ave NE DC",
    "id": 424,
    "city": "Michigan Ave NE",
    "state": "DC"
  },
  {
    "title": "Best waffles in town Coming to Arlington, VA | Nash & Smashed",
    "seo_friendly_url": "best-waffles-in-town/arlington-va",
    "keyword": "Best waffles in town",
    "location": "Arlington VA",
    "id": 423,
    "city": "Arlington",
    "state": "VA"
  },
  {
    "title": "Open Till Late Coming to Michigan Ave NE, DC | Nash & Smashed",
    "seo_friendly_url": "open-till-late/michigan-ave-ne-dc",
    "keyword": "Open Till Late",
    "location": "Michigan Ave NE DC",
    "id": 422,
    "city": "Michigan Ave NE",
    "state": "DC"
  },
  {
    "title": "Gourmet Burgers Restaurant Coming to Glen Allen, VA | Nash & Smashed",
    "seo_friendly_url": "gourmet-burgers-restaurant/glen-allen-va",
    "keyword": "Gourmet Burgers Restaurant",
    "location": "Glen Allen VA",
    "id": 421,
    "city": "Glen Allen",
    "state": "VA"
  },
  {
    "title": "Open Till Late Coming to Glen Allen, VA | Nash & Smashed",
    "seo_friendly_url": "open-till-late/glen-allen-va",
    "keyword": "Open Till Late",
    "location": "Glen Allen VA",
    "id": 420,
    "city": "Glen Allen",
    "state": "VA"
  },
  {
    "title": "Halal Burgers Coming to Manassas Park, VA | Nash & Smashed",
    "seo_friendly_url": "halal-burgers/manassas-park-va",
    "keyword": "Halal Burgers",
    "location": "Manassas Park VA",
    "id": 419,
    "city": "Manassas Park",
    "state": "VA"
  },
  {
    "title": "Dine in & Takeout Restaurant Coming to Arlington, VA | Nash & Smashed",
    "seo_friendly_url": "dine-in-takeout-restaurant/arlington-va",
    "keyword": "Dine in & Takeout Restaurant",
    "location": "Arlington VA",
    "id": 418,
    "city": "Arlington",
    "state": "VA"
  },
  {
    "title": "Halal American Restaurant Coming to Glen Allen, VA | Nash & Smashed",
    "seo_friendly_url": "halal-american-restaurant/glen-allen-va",
    "keyword": "Halal American Restaurant",
    "location": "Glen Allen VA",
    "id": 417,
    "city": "Glen Allen",
    "state": "VA"
  },
  {
    "title": "Halal Desi Restaurant Coming to Warrenton, VA | Nash & Smashed",
    "seo_friendly_url": "halal-desi-restaurant/warrenton-va",
    "keyword": "Halal Desi Restaurant",
    "location": "Warrenton VA",
    "id": 416,
    "city": "Warrenton",
    "state": "VA"
  },
  {
    "title": "Best Milk Shakes Coming to Woodbridge, VA | Nash & Smashed",
    "seo_friendly_url": "best-milk-shakes/woodbridge-va",
    "keyword": "Best Milk Shakes",
    "location": "Woodbridge VA",
    "id": 415,
    "city": "Woodbridge",
    "state": "VA"
  },
  {
    "title": "Quick Bites Coming to Reston, VA | Nash & Smashed",
    "seo_friendly_url": "quick-bites/reston-va",
    "keyword": "Quick Bites",
    "location": "Reston VA",
    "id": 414,
    "city": "Reston",
    "state": "VA"
  },
  {
    "title": "Best Chicken Tenders Coming to Warrenton, VA | Nash & Smashed",
    "seo_friendly_url": "best-chicken-tenders/warrenton-va",
    "keyword": "Best Chicken Tenders",
    "location": "Warrenton VA",
    "id": 413,
    "city": "Warrenton",
    "state": "VA"
  },
  {
    "title": "Best Chicken Wings Coming to Lanham, MD | Nash & Smashed",
    "seo_friendly_url": "best-chicken-wings/lanham-md",
    "keyword": "Best Chicken Wings",
    "location": "Lanham MD",
    "id": 412,
    "city": "Lanham",
    "state": "MD"
  },
  {
    "title": "Halal Desi Restaurant Coming to Temple Hills, MD | Nash & Smashed",
    "seo_friendly_url": "halal-desi-restaurant/temple-hills-md",
    "keyword": "Halal Desi Restaurant",
    "location": "Temple Hills MD",
    "id": 411,
    "city": "Temple Hills",
    "state": "MD"
  },
  {
    "title": "Halal Burgers Coming to District Heights, MD | Nash & Smashed",
    "seo_friendly_url": "halal-burgers/district-heights-md",
    "keyword": "Halal Burgers",
    "location": "District Heights MD",
    "id": 410,
    "city": "District Heights",
    "state": "MD"
  },
  {
    "title": "Halal Burgers Coming to Arlington, VA | Nash & Smashed",
    "seo_friendly_url": "halal-burgers/arlington-va",
    "keyword": "Halal Burgers",
    "location": "Arlington VA",
    "id": 409,
    "city": "Arlington",
    "state": "VA"
  },
  {
    "title": "Family Friendly restaurant Coming to Manassas Park, VA | Nash & Smashed",
    "seo_friendly_url": "family-friendly-restaurant/manassas-park-va",
    "keyword": "Family Friendly restaurant",
    "location": "Manassas Park VA",
    "id": 408,
    "city": "Manassas Park",
    "state": "VA"
  },
  {
    "title": "Best in Town Fried chicken & Burgers Coming to Arlington, VA | Nash & Smashed",
    "seo_friendly_url": "best-in-town-fried-chicken-burgers/arlington-va",
    "keyword": "Best in Town Fried chicken & Burgers",
    "location": "Arlington VA",
    "id": 407,
    "city": "Arlington",
    "state": "VA"
  },
  {
    "title": "Best in Town Fried chicken & Burgers Coming to Lorton, VA | Nash & Smashed",
    "seo_friendly_url": "best-in-town-fried-chicken-burgers/lorton-va",
    "keyword": "Best in Town Fried chicken & Burgers",
    "location": "Lorton VA",
    "id": 406,
    "city": "Lorton",
    "state": "VA"
  },
  {
    "title": "Halal Desi Restaurant Coming to Alexandria, VA | Nash & Smashed",
    "seo_friendly_url": "halal-desi-restaurant/alexandria-va",
    "keyword": "Halal Desi Restaurant",
    "location": "Alexandria VA",
    "id": 405,
    "city": "Alexandria",
    "state": "VA"
  },
  {
    "title": "Gourmet Burgers Restaurant Coming to Lanham, MD | Nash & Smashed",
    "seo_friendly_url": "gourmet-burgers-restaurant/lanham-md",
    "keyword": "Gourmet Burgers Restaurant",
    "location": "Lanham MD",
    "id": 404,
    "city": "Lanham",
    "state": "MD"
  },
  {
    "title": "Best Chicken Wings Coming to Michigan Ave NE, DC | Nash & Smashed",
    "seo_friendly_url": "best-chicken-wings/michigan-ave-ne-dc",
    "keyword": "Best Chicken Wings",
    "location": "Michigan Ave NE DC",
    "id": 403,
    "city": "Michigan Ave NE",
    "state": "DC"
  },
  {
    "title": "Best Smashed Burgers Coming to Warrenton, VA | Nash & Smashed",
    "seo_friendly_url": "best-smashed-burgers/warrenton-va",
    "keyword": "Best Smashed Burgers",
    "location": "Warrenton VA",
    "id": 402,
    "city": "Warrenton",
    "state": "VA"
  },
  {
    "title": "Best waffles in town Coming to Lorton, VA | Nash & Smashed",
    "seo_friendly_url": "best-waffles-in-town/lorton-va",
    "keyword": "Best waffles in town",
    "location": "Lorton VA",
    "id": 401,
    "city": "Lorton",
    "state": "VA"
  },
  {
    "title": "Family Friendly restaurant Coming to Lorton, VA | Nash & Smashed",
    "seo_friendly_url": "family-friendly-restaurant/lorton-va",
    "keyword": "Family Friendly restaurant",
    "location": "Lorton VA",
    "id": 400,
    "city": "Lorton",
    "state": "VA"
  },
  {
    "title": "Halal Fried Chicken Coming to Temple Hills, MD | Nash & Smashed",
    "seo_friendly_url": "halal-fried-chicken/temple-hills-md",
    "keyword": "Halal Fried Chicken",
    "location": "Temple Hills MD",
    "id": 399,
    "city": "Temple Hills",
    "state": "MD"
  },
  {
    "title": "Best waffles in town Coming to Manassas Park, VA | Nash & Smashed",
    "seo_friendly_url": "best-waffles-in-town/manassas-park-va",
    "keyword": "Best waffles in town",
    "location": "Manassas Park VA",
    "id": 398,
    "city": "Manassas Park",
    "state": "VA"
  },
  {
    "title": "Dine in & Takeout Restaurant Coming to H St NE, DC | Nash & Smashed",
    "seo_friendly_url": "dine-in-takeout-restaurant/h-st-ne-dc",
    "keyword": "Dine in & Takeout Restaurant",
    "location": "H St NE DC",
    "id": 397,
    "city": "H St NE",
    "state": "DC"
  },
  {
    "title": "Halal American Restaurant Coming to Abingdon, MD | Nash & Smashed",
    "seo_friendly_url": "halal-american-restaurant/abingdon-md",
    "keyword": "Halal American Restaurant",
    "location": "Abingdon MD",
    "id": 396,
    "city": "Abingdon",
    "state": "MD"
  },
  {
    "title": "Best in Town Fried chicken & Burgers Coming to Lanham, MD | Nash & Smashed",
    "seo_friendly_url": "best-in-town-fried-chicken-burgers/lanham-md",
    "keyword": "Best in Town Fried chicken & Burgers",
    "location": "Lanham MD",
    "id": 395,
    "city": "Lanham",
    "state": "MD"
  },
  {
    "title": "Best Chicken Wings Coming to H St NE, DC | Nash & Smashed",
    "seo_friendly_url": "best-chicken-wings/h-st-ne-dc",
    "keyword": "Best Chicken Wings",
    "location": "H St NE DC",
    "id": 394,
    "city": "H St NE",
    "state": "DC"
  },
  {
    "title": "Finger Licking Fried Chicken Coming to Southeast, DC | Nash & Smashed",
    "seo_friendly_url": "finger-licking-fried-chicken/southeast-dc",
    "keyword": "Finger Licking Fried Chicken",
    "location": "Southeast DC",
    "id": 393,
    "city": "Southeast",
    "state": "DC"
  },
  {
    "title": "Halal Burgers Coming to Lorton, VA | Nash & Smashed",
    "seo_friendly_url": "halal-burgers/lorton-va",
    "keyword": "Halal Burgers",
    "location": "Lorton VA",
    "id": 392,
    "city": "Lorton",
    "state": "VA"
  },
  {
    "title": "Halal Fried Chicken Coming to Woodbridge, VA | Nash & Smashed",
    "seo_friendly_url": "halal-fried-chicken/woodbridge-va",
    "keyword": "Halal Fried Chicken",
    "location": "Woodbridge VA",
    "id": 391,
    "city": "Woodbridge",
    "state": "VA"
  },
  {
    "title": "Best Chicken Tenders Coming to Southeast, DC | Nash & Smashed",
    "seo_friendly_url": "best-chicken-tenders/southeast-dc",
    "keyword": "Best Chicken Tenders",
    "location": "Southeast DC",
    "id": 390,
    "city": "Southeast",
    "state": "DC"
  },
  {
    "title": "Gourmet Burgers Restaurant Coming to H St NE, DC | Nash & Smashed",
    "seo_friendly_url": "gourmet-burgers-restaurant/h-st-ne-dc",
    "keyword": "Gourmet Burgers Restaurant",
    "location": "H St NE DC",
    "id": 389,
    "city": "H St NE",
    "state": "DC"
  },
  {
    "title": "Fast Food Coming to Manassas Park, VA | Nash & Smashed",
    "seo_friendly_url": "fast-food/manassas-park-va",
    "keyword": "Fast Food",
    "location": "Manassas Park VA",
    "id": 388,
    "city": "Manassas Park",
    "state": "VA"
  },
  {
    "title": "Best waffles in town Coming to Lanham, MD | Nash & Smashed",
    "seo_friendly_url": "best-waffles-in-town/lanham-md",
    "keyword": "Best waffles in town",
    "location": "Lanham MD",
    "id": 387,
    "city": "Lanham",
    "state": "MD"
  },
  {
    "title": "Open Till Late Coming to Abingdon, MD | Nash & Smashed",
    "seo_friendly_url": "open-till-late/abingdon-md",
    "keyword": "Open Till Late",
    "location": "Abingdon MD",
    "id": 386,
    "city": "Abingdon",
    "state": "MD"
  },
  {
    "title": "Best waffles in town Coming to H St NE, DC | Nash & Smashed",
    "seo_friendly_url": "best-waffles-in-town/h-st-ne-dc",
    "keyword": "Best waffles in town",
    "location": "H St NE DC",
    "id": 385,
    "city": "H St NE",
    "state": "DC"
  },
  {
    "title": "Best Halal Restaurant Coming to Alexandria, VA | Nash & Smashed",
    "seo_friendly_url": "best-halal-restaurant/alexandria-va",
    "keyword": "Best Halal Restaurant",
    "location": "Alexandria VA",
    "id": 384,
    "city": "Alexandria",
    "state": "VA"
  },
  {
    "title": "Fast Food Coming to Southeast, DC | Nash & Smashed",
    "seo_friendly_url": "fast-food/southeast-dc",
    "keyword": "Fast Food",
    "location": "Southeast DC",
    "id": 383,
    "city": "Southeast",
    "state": "DC"
  },
  {
    "title": "Gourmet Burgers Restaurant Coming to Southeast, DC | Nash & Smashed",
    "seo_friendly_url": "gourmet-burgers-restaurant/southeast-dc",
    "keyword": "Gourmet Burgers Restaurant",
    "location": "Southeast DC",
    "id": 382,
    "city": "Southeast",
    "state": "DC"
  },
  {
    "title": "Finger Licking Fried Chicken Coming to Manassas Park, VA | Nash & Smashed",
    "seo_friendly_url": "finger-licking-fried-chicken/manassas-park-va",
    "keyword": "Finger Licking Fried Chicken",
    "location": "Manassas Park VA",
    "id": 381,
    "city": "Manassas Park",
    "state": "VA"
  },
  {
    "title": "Finger Licking Fried Chicken Coming to Lorton, VA | Nash & Smashed",
    "seo_friendly_url": "finger-licking-fried-chicken/lorton-va",
    "keyword": "Finger Licking Fried Chicken",
    "location": "Lorton VA",
    "id": 380,
    "city": "Lorton",
    "state": "VA"
  },
  {
    "title": "Quick Bites Coming to District Heights, MD | Nash & Smashed",
    "seo_friendly_url": "quick-bites/district-heights-md",
    "keyword": "Quick Bites",
    "location": "District Heights MD",
    "id": 379,
    "city": "District Heights",
    "state": "MD"
  },
  {
    "title": "Best Smashed Burgers Coming to District Heights, MD | Nash & Smashed",
    "seo_friendly_url": "best-smashed-burgers/district-heights-md",
    "keyword": "Best Smashed Burgers",
    "location": "District Heights MD",
    "id": 378,
    "city": "District Heights",
    "state": "MD"
  },
  {
    "title": "Finger Licking Fried Chicken Coming to Glen Allen, VA | Nash & Smashed",
    "seo_friendly_url": "finger-licking-fried-chicken/glen-allen-va",
    "keyword": "Finger Licking Fried Chicken",
    "location": "Glen Allen VA",
    "id": 377,
    "city": "Glen Allen",
    "state": "VA"
  },
  {
    "title": "Best Nashville Sandwiches Coming to District Heights, MD | Nash & Smashed",
    "seo_friendly_url": "best-nashville-sandwiches/district-heights-md",
    "keyword": "Best Nashville Sandwiches",
    "location": "District Heights MD",
    "id": 376,
    "city": "District Heights",
    "state": "MD"
  },
  {
    "title": "Dine in & Takeout Restaurant Coming to Lanham, MD | Nash & Smashed",
    "seo_friendly_url": "dine-in-takeout-restaurant/lanham-md",
    "keyword": "Dine in & Takeout Restaurant",
    "location": "Lanham MD",
    "id": 375,
    "city": "Lanham",
    "state": "MD"
  },
  {
    "title": "Halal Desi Restaurant Coming to Lanham, MD | Nash & Smashed",
    "seo_friendly_url": "halal-desi-restaurant/lanham-md",
    "keyword": "Halal Desi Restaurant",
    "location": "Lanham MD",
    "id": 374,
    "city": "Lanham",
    "state": "MD"
  },
  {
    "title": "Best Chicken Tenders Coming to Alexandria, VA | Nash & Smashed",
    "seo_friendly_url": "best-chicken-tenders/alexandria-va",
    "keyword": "Best Chicken Tenders",
    "location": "Alexandria VA",
    "id": 373,
    "city": "Alexandria",
    "state": "VA"
  },
  {
    "title": "Best waffles in town Coming to Glen Allen, VA | Nash & Smashed",
    "seo_friendly_url": "best-waffles-in-town/glen-allen-va",
    "keyword": "Best waffles in town",
    "location": "Glen Allen VA",
    "id": 372,
    "city": "Glen Allen",
    "state": "VA"
  },
  {
    "title": "Halal American Restaurant Coming to Reston, VA | Nash & Smashed",
    "seo_friendly_url": "halal-american-restaurant/reston-va",
    "keyword": "Halal American Restaurant",
    "location": "Reston VA",
    "id": 371,
    "city": "Reston",
    "state": "VA"
  },
  {
    "title": "Best Chicken Tenders Coming to Temple Hills, MD | Nash & Smashed",
    "seo_friendly_url": "best-chicken-tenders/temple-hills-md",
    "keyword": "Best Chicken Tenders",
    "location": "Temple Hills MD",
    "id": 370,
    "city": "Temple Hills",
    "state": "MD"
  },
  {
    "title": "Family Friendly restaurant Coming to Arlington, VA | Nash & Smashed",
    "seo_friendly_url": "family-friendly-restaurant/arlington-va",
    "keyword": "Family Friendly restaurant",
    "location": "Arlington VA",
    "id": 369,
    "city": "Arlington",
    "state": "VA"
  },
  {
    "title": "Halal American Restaurant Coming to Warrenton, VA | Nash & Smashed",
    "seo_friendly_url": "halal-american-restaurant/warrenton-va",
    "keyword": "Halal American Restaurant",
    "location": "Warrenton VA",
    "id": 368,
    "city": "Warrenton",
    "state": "VA"
  },
  {
    "title": "Best Smashed Burgers Coming to Arlington, VA | Nash & Smashed",
    "seo_friendly_url": "best-smashed-burgers/arlington-va",
    "keyword": "Best Smashed Burgers",
    "location": "Arlington VA",
    "id": 367,
    "city": "Arlington",
    "state": "VA"
  },
  {
    "title": "Best Halal Restaurant Coming to Lorton, VA | Nash & Smashed",
    "seo_friendly_url": "best-halal-restaurant/lorton-va",
    "keyword": "Best Halal Restaurant",
    "location": "Lorton VA",
    "id": 366,
    "city": "Lorton",
    "state": "VA"
  },
  {
    "title": "Fast Food Coming to Michigan Ave NE, DC | Nash & Smashed",
    "seo_friendly_url": "fast-food/michigan-ave-ne-dc",
    "keyword": "Fast Food",
    "location": "Michigan Ave NE DC",
    "id": 365,
    "city": "Michigan Ave NE",
    "state": "DC"
  },
  {
    "title": "Best fried Chicken Coming to Southeast, DC | Nash & Smashed",
    "seo_friendly_url": "best-fried-chicken/southeast-dc",
    "keyword": "Best fried Chicken",
    "location": "Southeast DC",
    "id": 364,
    "city": "Southeast",
    "state": "DC"
  },
  {
    "title": "Best Milk Shakes Coming to Alexandria, VA | Nash & Smashed",
    "seo_friendly_url": "best-milk-shakes/alexandria-va",
    "keyword": "Best Milk Shakes",
    "location": "Alexandria VA",
    "id": 363,
    "city": "Alexandria",
    "state": "VA"
  },
  {
    "title": "Best Smashed Burgers Coming to Michigan Ave NE, DC | Nash & Smashed",
    "seo_friendly_url": "best-smashed-burgers/michigan-ave-ne-dc",
    "keyword": "Best Smashed Burgers",
    "location": "Michigan Ave NE DC",
    "id": 362,
    "city": "Michigan Ave NE",
    "state": "DC"
  },
  {
    "title": "Best Halal Restaurant Coming to Southeast, DC | Nash & Smashed",
    "seo_friendly_url": "best-halal-restaurant/southeast-dc",
    "keyword": "Best Halal Restaurant",
    "location": "Southeast DC",
    "id": 361,
    "city": "Southeast",
    "state": "DC"
  },
  {
    "title": "Halal Burgers Coming to Michigan Ave NE, DC | Nash & Smashed",
    "seo_friendly_url": "halal-burgers/michigan-ave-ne-dc",
    "keyword": "Halal Burgers",
    "location": "Michigan Ave NE DC",
    "id": 360,
    "city": "Michigan Ave NE",
    "state": "DC"
  },
  {
    "title": "Gourmet Burgers Restaurant Coming to Arlington, VA | Nash & Smashed",
    "seo_friendly_url": "gourmet-burgers-restaurant/arlington-va",
    "keyword": "Gourmet Burgers Restaurant",
    "location": "Arlington VA",
    "id": 359,
    "city": "Arlington",
    "state": "VA"
  },
  {
    "title": "Best Halal Restaurant Coming to H St NE, DC | Nash & Smashed",
    "seo_friendly_url": "best-halal-restaurant/h-st-ne-dc",
    "keyword": "Best Halal Restaurant",
    "location": "H St NE DC",
    "id": 358,
    "city": "H St NE",
    "state": "DC"
  },
  {
    "title": "Finger Licking Fried Chicken Coming to Michigan Ave NE, DC | Nash & Smashed",
    "seo_friendly_url": "finger-licking-fried-chicken/michigan-ave-ne-dc",
    "keyword": "Finger Licking Fried Chicken",
    "location": "Michigan Ave NE DC",
    "id": 357,
    "city": "Michigan Ave NE",
    "state": "DC"
  },
  {
    "title": "Finger Licking Fried Chicken Coming to District Heights, MD | Nash & Smashed",
    "seo_friendly_url": "finger-licking-fried-chicken/district-heights-md",
    "keyword": "Finger Licking Fried Chicken",
    "location": "District Heights MD",
    "id": 356,
    "city": "District Heights",
    "state": "MD"
  },
  {
    "title": "Fast Food Coming to District Heights, MD | Nash & Smashed",
    "seo_friendly_url": "fast-food/district-heights-md",
    "keyword": "Fast Food",
    "location": "District Heights MD",
    "id": 355,
    "city": "District Heights",
    "state": "MD"
  },
  {
    "title": "Best Halal Restaurant Coming to Lanham, MD | Nash & Smashed",
    "seo_friendly_url": "best-halal-restaurant/lanham-md",
    "keyword": "Best Halal Restaurant",
    "location": "Lanham MD",
    "id": 354,
    "city": "Lanham",
    "state": "MD"
  },
  {
    "title": "Best Milk Shakes Coming to Arlington, VA | Nash & Smashed",
    "seo_friendly_url": "best-milk-shakes/arlington-va",
    "keyword": "Best Milk Shakes",
    "location": "Arlington VA",
    "id": 353,
    "city": "Arlington",
    "state": "VA"
  },
  {
    "title": "Open Till Late Coming to Lorton, VA | Nash & Smashed",
    "seo_friendly_url": "open-till-late/lorton-va",
    "keyword": "Open Till Late",
    "location": "Lorton VA",
    "id": 352,
    "city": "Lorton",
    "state": "VA"
  },
  {
    "title": "Family Friendly restaurant Coming to Alexandria, VA | Nash & Smashed",
    "seo_friendly_url": "family-friendly-restaurant/alexandria-va",
    "keyword": "Family Friendly restaurant",
    "location": "Alexandria VA",
    "id": 351,
    "city": "Alexandria",
    "state": "VA"
  },
  {
    "title": "Finger Licking Fried Chicken Coming to Lanham, MD | Nash & Smashed",
    "seo_friendly_url": "finger-licking-fried-chicken/lanham-md",
    "keyword": "Finger Licking Fried Chicken",
    "location": "Lanham MD",
    "id": 350,
    "city": "Lanham",
    "state": "MD"
  },
  {
    "title": "Open Till Late Coming to Alexandria, VA | Nash & Smashed",
    "seo_friendly_url": "open-till-late/alexandria-va",
    "keyword": "Open Till Late",
    "location": "Alexandria VA",
    "id": 349,
    "city": "Alexandria",
    "state": "VA"
  },
  {
    "title": "Best fried Chicken Coming to Alexandria, VA | Nash & Smashed",
    "seo_friendly_url": "best-fried-chicken/alexandria-va",
    "keyword": "Best fried Chicken",
    "location": "Alexandria VA",
    "id": 348,
    "city": "Alexandria",
    "state": "VA"
  },
  {
    "title": "Best Halal Restaurant Coming to Temple Hills, MD | Nash & Smashed",
    "seo_friendly_url": "best-halal-restaurant/temple-hills-md",
    "keyword": "Best Halal Restaurant",
    "location": "Temple Hills MD",
    "id": 347,
    "city": "Temple Hills",
    "state": "MD"
  },
  {
    "title": "Open Till Late Coming to Temple Hills, MD | Nash & Smashed",
    "seo_friendly_url": "open-till-late/temple-hills-md",
    "keyword": "Open Till Late",
    "location": "Temple Hills MD",
    "id": 346,
    "city": "Temple Hills",
    "state": "MD"
  },
  {
    "title": "Best in Town Fried chicken & Burgers Coming to Abingdon, MD | Nash & Smashed",
    "seo_friendly_url": "best-in-town-fried-chicken-burgers/abingdon-md",
    "keyword": "Best in Town Fried chicken & Burgers",
    "location": "Abingdon MD",
    "id": 345,
    "city": "Abingdon",
    "state": "MD"
  },
  {
    "title": "Halal Burgers Coming to Lanham, MD | Nash & Smashed",
    "seo_friendly_url": "halal-burgers/lanham-md",
    "keyword": "Halal Burgers",
    "location": "Lanham MD",
    "id": 344,
    "city": "Lanham",
    "state": "MD"
  },
  {
    "title": "Best Chicken Wings Coming to Southeast, DC | Nash & Smashed",
    "seo_friendly_url": "best-chicken-wings/southeast-dc",
    "keyword": "Best Chicken Wings",
    "location": "Southeast DC",
    "id": 343,
    "city": "Southeast",
    "state": "DC"
  },
  {
    "title": "Best Chicken Wings Coming to Manassas Park, VA | Nash & Smashed",
    "seo_friendly_url": "best-chicken-wings/manassas-park-va",
    "keyword": "Best Chicken Wings",
    "location": "Manassas Park VA",
    "id": 342,
    "city": "Manassas Park",
    "state": "VA"
  },
  {
    "title": "Halal American Restaurant Coming to Woodbridge, VA | Nash & Smashed",
    "seo_friendly_url": "halal-american-restaurant/woodbridge-va",
    "keyword": "Halal American Restaurant",
    "location": "Woodbridge VA",
    "id": 341,
    "city": "Woodbridge",
    "state": "VA"
  },
  {
    "title": "Halal Burgers Coming to Temple Hills, MD | Nash & Smashed",
    "seo_friendly_url": "halal-burgers/temple-hills-md",
    "keyword": "Halal Burgers",
    "location": "Temple Hills MD",
    "id": 340,
    "city": "Temple Hills",
    "state": "MD"
  },
  {
    "title": "Halal American Restaurant Coming to Southeast, DC | Nash & Smashed",
    "seo_friendly_url": "halal-american-restaurant/southeast-dc",
    "keyword": "Halal American Restaurant",
    "location": "Southeast DC",
    "id": 339,
    "city": "Southeast",
    "state": "DC"
  },
  {
    "title": "Best Chicken Wings Coming to Alexandria, VA | Nash & Smashed",
    "seo_friendly_url": "best-chicken-wings/alexandria-va",
    "keyword": "Best Chicken Wings",
    "location": "Alexandria VA",
    "id": 338,
    "city": "Alexandria",
    "state": "VA"
  },
  {
    "title": "Halal Fried Chicken Coming to H St NE, DC | Nash & Smashed",
    "seo_friendly_url": "halal-fried-chicken/h-st-ne-dc",
    "keyword": "Halal Fried Chicken",
    "location": "H St NE DC",
    "id": 337,
    "city": "H St NE",
    "state": "DC"
  },
  {
    "title": "Best Chicken Wings Coming to Abingdon, MD | Nash & Smashed",
    "seo_friendly_url": "best-chicken-wings/abingdon-md",
    "keyword": "Best Chicken Wings",
    "location": "Abingdon MD",
    "id": 336,
    "city": "Abingdon",
    "state": "MD"
  },
  {
    "title": "Family Friendly restaurant Coming to Lanham, MD | Nash & Smashed",
    "seo_friendly_url": "family-friendly-restaurant/lanham-md",
    "keyword": "Family Friendly restaurant",
    "location": "Lanham MD",
    "id": 335,
    "city": "Lanham",
    "state": "MD"
  },
  {
    "title": "Dine in & Takeout Restaurant Coming to Woodbridge, VA | Nash & Smashed",
    "seo_friendly_url": "dine-in-takeout-restaurant/woodbridge-va",
    "keyword": "Dine in & Takeout Restaurant",
    "location": "Woodbridge VA",
    "id": 334,
    "city": "Woodbridge",
    "state": "VA"
  },
  {
    "title": "Fast Food Coming to Abingdon, MD | Nash & Smashed",
    "seo_friendly_url": "fast-food/abingdon-md",
    "keyword": "Fast Food",
    "location": "Abingdon MD",
    "id": 333,
    "city": "Abingdon",
    "state": "MD"
  },
  {
    "title": "Family Friendly restaurant Coming to Warrenton, VA | Nash & Smashed",
    "seo_friendly_url": "family-friendly-restaurant/warrenton-va",
    "keyword": "Family Friendly restaurant",
    "location": "Warrenton VA",
    "id": 332,
    "city": "Warrenton",
    "state": "VA"
  },
  {
    "title": "Gourmet Burgers Restaurant Coming to Woodbridge, VA | Nash & Smashed",
    "seo_friendly_url": "gourmet-burgers-restaurant/woodbridge-va",
    "keyword": "Gourmet Burgers Restaurant",
    "location": "Woodbridge VA",
    "id": 331,
    "city": "Woodbridge",
    "state": "VA"
  },
  {
    "title": "Best Chicken Wings Coming to Woodbridge, VA | Nash & Smashed",
    "seo_friendly_url": "best-chicken-wings/woodbridge-va",
    "keyword": "Best Chicken Wings",
    "location": "Woodbridge VA",
    "id": 330,
    "city": "Woodbridge",
    "state": "VA"
  },
  {
    "title": "Family Friendly restaurant Coming to Temple Hills, MD | Nash & Smashed",
    "seo_friendly_url": "family-friendly-restaurant/temple-hills-md",
    "keyword": "Family Friendly restaurant",
    "location": "Temple Hills MD",
    "id": 329,
    "city": "Temple Hills",
    "state": "MD"
  },
  {
    "title": "Gourmet Burgers Restaurant Coming to Manassas Park, VA | Nash & Smashed",
    "seo_friendly_url": "gourmet-burgers-restaurant/manassas-park-va",
    "keyword": "Gourmet Burgers Restaurant",
    "location": "Manassas Park VA",
    "id": 328,
    "city": "Manassas Park",
    "state": "VA"
  },
  {
    "title": "Best waffles in town Coming to Temple Hills, MD | Nash & Smashed",
    "seo_friendly_url": "best-waffles-in-town/temple-hills-md",
    "keyword": "Best waffles in town",
    "location": "Temple Hills MD",
    "id": 327,
    "city": "Temple Hills",
    "state": "MD"
  },
  {
    "title": "Best Chicken Tenders Coming to Arlington, VA | Nash & Smashed",
    "seo_friendly_url": "best-chicken-tenders/arlington-va",
    "keyword": "Best Chicken Tenders",
    "location": "Arlington VA",
    "id": 326,
    "city": "Arlington",
    "state": "VA"
  },
  {
    "title": "Open Till Late Coming to Southeast, DC | Nash & Smashed",
    "seo_friendly_url": "open-till-late/southeast-dc",
    "keyword": "Open Till Late",
    "location": "Southeast DC",
    "id": 325,
    "city": "Southeast",
    "state": "DC"
  },
  {
    "title": "Best Nashville Sandwiches Coming to Warrenton, VA | Nash & Smashed",
    "seo_friendly_url": "best-nashville-sandwiches/warrenton-va",
    "keyword": "Best Nashville Sandwiches",
    "location": "Warrenton VA",
    "id": 324,
    "city": "Warrenton",
    "state": "VA"
  },
  {
    "title": "Halal American Restaurant Coming to Lanham, MD | Nash & Smashed",
    "seo_friendly_url": "halal-american-restaurant/lanham-md",
    "keyword": "Halal American Restaurant",
    "location": "Lanham MD",
    "id": 323,
    "city": "Lanham",
    "state": "MD"
  },
  {
    "title": "Craft Mocktails Coming to Abingdon, MD | Nash & Smashed",
    "seo_friendly_url": "craft-mocktails/abingdon-md",
    "keyword": "Craft Mocktails",
    "location": "Abingdon MD",
    "id": 322,
    "city": "Abingdon",
    "state": "MD"
  },
  {
    "title": "Open Till Late Coming to Reston, VA | Nash & Smashed",
    "seo_friendly_url": "open-till-late/reston-va",
    "keyword": "Open Till Late",
    "location": "Reston VA",
    "id": 321,
    "city": "Reston",
    "state": "VA"
  },
  {
    "title": "Best Milk Shakes Coming to Michigan Ave NE, DC | Nash & Smashed",
    "seo_friendly_url": "best-milk-shakes/michigan-ave-ne-dc",
    "keyword": "Best Milk Shakes",
    "location": "Michigan Ave NE DC",
    "id": 320,
    "city": "Michigan Ave NE",
    "state": "DC"
  },
  {
    "title": "Best fried Chicken Coming to Manassas Park, VA | Nash & Smashed",
    "seo_friendly_url": "best-fried-chicken/manassas-park-va",
    "keyword": "Best fried Chicken",
    "location": "Manassas Park VA",
    "id": 319,
    "city": "Manassas Park",
    "state": "VA"
  },
  {
    "title": "Halal Fried Chicken Coming to Warrenton, VA | Nash & Smashed",
    "seo_friendly_url": "halal-fried-chicken/warrenton-va",
    "keyword": "Halal Fried Chicken",
    "location": "Warrenton VA",
    "id": 318,
    "city": "Warrenton",
    "state": "VA"
  },
  {
    "title": "Best in Town Fried chicken & Burgers Coming to District Heights, MD | Nash & Smashed",
    "seo_friendly_url": "best-in-town-fried-chicken-burgers/district-heights-md",
    "keyword": "Best in Town Fried chicken & Burgers",
    "location": "District Heights MD",
    "id": 317,
    "city": "District Heights",
    "state": "MD"
  },
  {
    "title": "Family Friendly restaurant Coming to Woodbridge, VA | Nash & Smashed",
    "seo_friendly_url": "family-friendly-restaurant/woodbridge-va",
    "keyword": "Family Friendly restaurant",
    "location": "Woodbridge VA",
    "id": 316,
    "city": "Woodbridge",
    "state": "VA"
  },
  {
    "title": "Finger Licking Fried Chicken Coming to Abingdon, MD | Nash & Smashed",
    "seo_friendly_url": "finger-licking-fried-chicken/abingdon-md",
    "keyword": "Finger Licking Fried Chicken",
    "location": "Abingdon MD",
    "id": 315,
    "city": "Abingdon",
    "state": "MD"
  },
  {
    "title": "Dine in & Takeout Restaurant Coming to Glen Allen, VA | Nash & Smashed",
    "seo_friendly_url": "dine-in-takeout-restaurant/glen-allen-va",
    "keyword": "Dine in & Takeout Restaurant",
    "location": "Glen Allen VA",
    "id": 314,
    "city": "Glen Allen",
    "state": "VA"
  },
  {
    "title": "Best fried Chicken Coming to Lorton, VA | Nash & Smashed",
    "seo_friendly_url": "best-fried-chicken/lorton-va",
    "keyword": "Best fried Chicken",
    "location": "Lorton VA",
    "id": 313,
    "city": "Lorton",
    "state": "VA"
  },
  {
    "title": "Halal American Restaurant Coming to Temple Hills, MD | Nash & Smashed",
    "seo_friendly_url": "halal-american-restaurant/temple-hills-md",
    "keyword": "Halal American Restaurant",
    "location": "Temple Hills MD",
    "id": 312,
    "city": "Temple Hills",
    "state": "MD"
  },
  {
    "title": "Dine in & Takeout Restaurant Coming to Lorton, VA | Nash & Smashed",
    "seo_friendly_url": "dine-in-takeout-restaurant/lorton-va",
    "keyword": "Dine in & Takeout Restaurant",
    "location": "Lorton VA",
    "id": 311,
    "city": "Lorton",
    "state": "VA"
  },
  {
    "title": "Best Smashed Burgers Coming to Glen Allen, VA | Nash & Smashed",
    "seo_friendly_url": "best-smashed-burgers/glen-allen-va",
    "keyword": "Best Smashed Burgers",
    "location": "Glen Allen VA",
    "id": 310,
    "city": "Glen Allen",
    "state": "VA"
  },
  {
    "title": "Fast Food Coming to Arlington, VA | Nash & Smashed",
    "seo_friendly_url": "fast-food/arlington-va",
    "keyword": "Fast Food",
    "location": "Arlington VA",
    "id": 309,
    "city": "Arlington",
    "state": "VA"
  },
  {
    "title": "Best Nashville Sandwiches Coming to Lanham, MD | Nash & Smashed",
    "seo_friendly_url": "best-nashville-sandwiches/lanham-md",
    "keyword": "Best Nashville Sandwiches",
    "location": "Lanham MD",
    "id": 308,
    "city": "Lanham",
    "state": "MD"
  },
  {
    "title": "Gourmet Burgers Restaurant Coming to District Heights, MD | Nash & Smashed",
    "seo_friendly_url": "gourmet-burgers-restaurant/district-heights-md",
    "keyword": "Gourmet Burgers Restaurant",
    "location": "District Heights MD",
    "id": 307,
    "city": "District Heights",
    "state": "MD"
  },
  {
    "title": "Best fried Chicken Coming to Warrenton, VA | Nash & Smashed",
    "seo_friendly_url": "best-fried-chicken/warrenton-va",
    "keyword": "Best fried Chicken",
    "location": "Warrenton VA",
    "id": 306,
    "city": "Warrenton",
    "state": "VA"
  },
  {
    "title": "Best fried Chicken Coming to Glen Allen, VA | Nash & Smashed",
    "seo_friendly_url": "best-fried-chicken/glen-allen-va",
    "keyword": "Best fried Chicken",
    "location": "Glen Allen VA",
    "id": 305,
    "city": "Glen Allen",
    "state": "VA"
  },
  {
    "title": "Gourmet Burgers Restaurant Coming to Michigan Ave NE, DC | Nash & Smashed",
    "seo_friendly_url": "gourmet-burgers-restaurant/michigan-ave-ne-dc",
    "keyword": "Gourmet Burgers Restaurant",
    "location": "Michigan Ave NE DC",
    "id": 304,
    "city": "Michigan Ave NE",
    "state": "DC"
  },
  {
    "title": "Finger Licking Fried Chicken Coming to Alexandria, VA | Nash & Smashed",
    "seo_friendly_url": "finger-licking-fried-chicken/alexandria-va",
    "keyword": "Finger Licking Fried Chicken",
    "location": "Alexandria VA",
    "id": 303,
    "city": "Alexandria",
    "state": "VA"
  },
  {
    "title": "Best Smashed Burgers Coming to Southeast, DC | Nash & Smashed",
    "seo_friendly_url": "best-smashed-burgers/southeast-dc",
    "keyword": "Best Smashed Burgers",
    "location": "Southeast DC",
    "id": 302,
    "city": "Southeast",
    "state": "DC"
  },
  {
    "title": "Fast Food Coming to H St NE, DC | Nash & Smashed",
    "seo_friendly_url": "fast-food/h-st-ne-dc",
    "keyword": "Fast Food",
    "location": "H St NE DC",
    "id": 301,
    "city": "H St NE",
    "state": "DC"
  },
  {
    "title": "Family Friendly restaurant Coming to Michigan Ave NE, DC | Nash & Smashed",
    "seo_friendly_url": "family-friendly-restaurant/michigan-ave-ne-dc",
    "keyword": "Family Friendly restaurant",
    "location": "Michigan Ave NE DC",
    "id": 300,
    "city": "Michigan Ave NE",
    "state": "DC"
  },
  {
    "title": "Dine in & Takeout Restaurant Coming to Temple Hills, MD | Nash & Smashed",
    "seo_friendly_url": "dine-in-takeout-restaurant/temple-hills-md",
    "keyword": "Dine in & Takeout Restaurant",
    "location": "Temple Hills MD",
    "id": 299,
    "city": "Temple Hills",
    "state": "MD"
  },
  {
    "title": "Best Chicken Tenders Coming to Michigan Ave NE, DC | Nash & Smashed",
    "seo_friendly_url": "best-chicken-tenders/michigan-ave-ne-dc",
    "keyword": "Best Chicken Tenders",
    "location": "Michigan Ave NE DC",
    "id": 298,
    "city": "Michigan Ave NE",
    "state": "DC"
  },
  {
    "title": "Best Milk Shakes Coming to Southeast, DC | Nash & Smashed",
    "seo_friendly_url": "best-milk-shakes/southeast-dc",
    "keyword": "Best Milk Shakes",
    "location": "Southeast DC",
    "id": 297,
    "city": "Southeast",
    "state": "DC"
  },
  {
    "title": "Best waffles in town Coming to Southeast, DC | Nash & Smashed",
    "seo_friendly_url": "best-waffles-in-town/southeast-dc",
    "keyword": "Best waffles in town",
    "location": "Southeast DC",
    "id": 296,
    "city": "Southeast",
    "state": "DC"
  },
  {
    "title": "Best fried Chicken Coming to Abingdon, MD | Nash & Smashed",
    "seo_friendly_url": "best-fried-chicken/abingdon-md",
    "keyword": "Best fried Chicken",
    "location": "Abingdon MD",
    "id": 295,
    "city": "Abingdon",
    "state": "MD"
  },
  {
    "title": "Quick Bites Coming to Abingdon, MD | Nash & Smashed",
    "seo_friendly_url": "quick-bites/abingdon-md",
    "keyword": "Quick Bites",
    "location": "Abingdon MD",
    "id": 294,
    "city": "Abingdon",
    "state": "MD"
  },
  {
    "title": "Best fried Chicken Coming to Temple Hills, MD | Nash & Smashed",
    "seo_friendly_url": "best-fried-chicken/temple-hills-md",
    "keyword": "Best fried Chicken",
    "location": "Temple Hills MD",
    "id": 293,
    "city": "Temple Hills",
    "state": "MD"
  },
  {
    "title": "Best Nashville Sandwiches Coming to Glen Allen, VA | Nash & Smashed",
    "seo_friendly_url": "best-nashville-sandwiches/glen-allen-va",
    "keyword": "Best Nashville Sandwiches",
    "location": "Glen Allen VA",
    "id": 292,
    "city": "Glen Allen",
    "state": "VA"
  },
  {
    "title": "Best Chicken Wings Coming to Temple Hills, MD | Nash & Smashed",
    "seo_friendly_url": "best-chicken-wings/temple-hills-md",
    "keyword": "Best Chicken Wings",
    "location": "Temple Hills MD",
    "id": 291,
    "city": "Temple Hills",
    "state": "MD"
  },
  {
    "title": "Craft Mocktails Coming to Lorton, VA | Nash & Smashed",
    "seo_friendly_url": "craft-mocktails/lorton-va",
    "keyword": "Craft Mocktails",
    "location": "Lorton VA",
    "id": 290,
    "city": "Lorton",
    "state": "VA"
  },
  {
    "title": "Quick Bites Coming to Alexandria, VA | Nash & Smashed",
    "seo_friendly_url": "quick-bites/alexandria-va",
    "keyword": "Quick Bites",
    "location": "Alexandria VA",
    "id": 289,
    "city": "Alexandria",
    "state": "VA"
  },
  {
    "title": "Dine in & Takeout Restaurant Coming to Alexandria, VA | Nash & Smashed",
    "seo_friendly_url": "dine-in-takeout-restaurant/alexandria-va",
    "keyword": "Dine in & Takeout Restaurant",
    "location": "Alexandria VA",
    "id": 288,
    "city": "Alexandria",
    "state": "VA"
  },
  {
    "title": "Best waffles in town Coming to Reston, VA | Nash & Smashed",
    "seo_friendly_url": "best-waffles-in-town/reston-va",
    "keyword": "Best waffles in town",
    "location": "Reston VA",
    "id": 287,
    "city": "Reston",
    "state": "VA"
  },
  {
    "title": "Best Chicken Tenders Coming to Lorton, VA | Nash & Smashed",
    "seo_friendly_url": "best-chicken-tenders/lorton-va",
    "keyword": "Best Chicken Tenders",
    "location": "Lorton VA",
    "id": 286,
    "city": "Lorton",
    "state": "VA"
  },
  {
    "title": "Best Nashville Sandwiches Coming to Manassas Park, VA | Nash & Smashed",
    "seo_friendly_url": "best-nashville-sandwiches/manassas-park-va",
    "keyword": "Best Nashville Sandwiches",
    "location": "Manassas Park VA",
    "id": 285,
    "city": "Manassas Park",
    "state": "VA"
  },
  {
    "title": "Halal Fried Chicken Coming to Manassas Park, VA | Nash & Smashed",
    "seo_friendly_url": "halal-fried-chicken/manassas-park-va",
    "keyword": "Halal Fried Chicken",
    "location": "Manassas Park VA",
    "id": 284,
    "city": "Manassas Park",
    "state": "VA"
  },
  {
    "title": "Halal Burgers Coming to H St NE, DC | Nash & Smashed",
    "seo_friendly_url": "halal-burgers/h-st-ne-dc",
    "keyword": "Halal Burgers",
    "location": "H St NE DC",
    "id": 283,
    "city": "H St NE",
    "state": "DC"
  },
  {
    "title": "Quick Bites Coming to Woodbridge, VA | Nash & Smashed",
    "seo_friendly_url": "quick-bites/woodbridge-va",
    "keyword": "Quick Bites",
    "location": "Woodbridge VA",
    "id": 282,
    "city": "Woodbridge",
    "state": "VA"
  },
  {
    "title": "Halal American Restaurant Coming to H St NE, DC | Nash & Smashed",
    "seo_friendly_url": "halal-american-restaurant/h-st-ne-dc",
    "keyword": "Halal American Restaurant",
    "location": "H St NE DC",
    "id": 281,
    "city": "H St NE",
    "state": "DC"
  },
  {
    "title": "Best Chicken Wings Coming to Lorton, VA | Nash & Smashed",
    "seo_friendly_url": "best-chicken-wings/lorton-va",
    "keyword": "Best Chicken Wings",
    "location": "Lorton VA",
    "id": 280,
    "city": "Lorton",
    "state": "VA"
  },
  {
    "title": "Best waffles in town Coming to Woodbridge, VA | Nash & Smashed",
    "seo_friendly_url": "best-waffles-in-town/woodbridge-va",
    "keyword": "Best waffles in town",
    "location": "Woodbridge VA",
    "id": 279,
    "city": "Woodbridge",
    "state": "VA"
  },
  {
    "title": "Finger Licking Fried Chicken Coming to Woodbridge, VA | Nash & Smashed",
    "seo_friendly_url": "finger-licking-fried-chicken/woodbridge-va",
    "keyword": "Finger Licking Fried Chicken",
    "location": "Woodbridge VA",
    "id": 278,
    "city": "Woodbridge",
    "state": "VA"
  },
  {
    "title": "Best Chicken Tenders Coming to H St NE, DC | Nash & Smashed",
    "seo_friendly_url": "best-chicken-tenders/h-st-ne-dc",
    "keyword": "Best Chicken Tenders",
    "location": "H St NE DC",
    "id": 277,
    "city": "H St NE",
    "state": "DC"
  },
  {
    "title": "Halal Burgers Coming to Glen Allen, VA | Nash & Smashed",
    "seo_friendly_url": "halal-burgers/glen-allen-va",
    "keyword": "Halal Burgers",
    "location": "Glen Allen VA",
    "id": 276,
    "city": "Glen Allen",
    "state": "VA"
  },
  {
    "title": "Best in Town Fried chicken & Burgers Coming to Warrenton, VA | Nash & Smashed",
    "seo_friendly_url": "best-in-town-fried-chicken-burgers/warrenton-va",
    "keyword": "Best in Town Fried chicken & Burgers",
    "location": "Warrenton VA",
    "id": 275,
    "city": "Warrenton",
    "state": "VA"
  },
  {
    "title": "Best Halal Restaurant Coming to Glen Allen, VA | Nash & Smashed",
    "seo_friendly_url": "best-halal-restaurant/glen-allen-va",
    "keyword": "Best Halal Restaurant",
    "location": "Glen Allen VA",
    "id": 274,
    "city": "Glen Allen",
    "state": "VA"
  },
  {
    "title": "Halal American Restaurant Coming to Alexandria, VA | Nash & Smashed",
    "seo_friendly_url": "halal-american-restaurant/alexandria-va",
    "keyword": "Halal American Restaurant",
    "location": "Alexandria VA",
    "id": 273,
    "city": "Alexandria",
    "state": "VA"
  },
  {
    "title": "Halal Desi Restaurant Coming to Arlington, VA | Nash & Smashed",
    "seo_friendly_url": "halal-desi-restaurant/arlington-va",
    "keyword": "Halal Desi Restaurant",
    "location": "Arlington VA",
    "id": 272,
    "city": "Arlington",
    "state": "VA"
  },
  {
    "title": "Halal Desi Restaurant Coming to Abingdon, MD | Nash & Smashed",
    "seo_friendly_url": "halal-desi-restaurant/abingdon-md",
    "keyword": "Halal Desi Restaurant",
    "location": "Abingdon MD",
    "id": 271,
    "city": "Abingdon",
    "state": "MD"
  },
  {
    "title": "Best Chicken Tenders Coming to Abingdon, MD | Nash & Smashed",
    "seo_friendly_url": "best-chicken-tenders/abingdon-md",
    "keyword": "Best Chicken Tenders",
    "location": "Abingdon MD",
    "id": 270,
    "city": "Abingdon",
    "state": "MD"
  },
  {
    "title": "Halal American Restaurant Coming to Michigan Ave NE, DC | Nash & Smashed",
    "seo_friendly_url": "halal-american-restaurant/michigan-ave-ne-dc",
    "keyword": "Halal American Restaurant",
    "location": "Michigan Ave NE DC",
    "id": 269,
    "city": "Michigan Ave NE",
    "state": "DC"
  },
  {
    "title": "Fast Food Coming to Alexandria, VA | Nash & Smashed",
    "seo_friendly_url": "fast-food/alexandria-va",
    "keyword": "Fast Food",
    "location": "Alexandria VA",
    "id": 268,
    "city": "Alexandria",
    "state": "VA"
  },
  {
    "title": "Dine in & Takeout Restaurant Coming to Abingdon, MD | Nash & Smashed",
    "seo_friendly_url": "dine-in-takeout-restaurant/abingdon-md",
    "keyword": "Dine in & Takeout Restaurant",
    "location": "Abingdon MD",
    "id": 267,
    "city": "Abingdon",
    "state": "MD"
  },
  {
    "title": "Best Halal Restaurant Coming to Michigan Ave NE, DC | Nash & Smashed",
    "seo_friendly_url": "best-halal-restaurant/michigan-ave-ne-dc",
    "keyword": "Best Halal Restaurant",
    "location": "Michigan Ave NE DC",
    "id": 266,
    "city": "Michigan Ave NE",
    "state": "DC"
  },
  {
    "title": "Best fried Chicken Coming to Michigan Ave NE, DC | Nash & Smashed",
    "seo_friendly_url": "best-fried-chicken/michigan-ave-ne-dc",
    "keyword": "Best fried Chicken",
    "location": "Michigan Ave NE DC",
    "id": 265,
    "city": "Michigan Ave NE",
    "state": "DC"
  },
  {
    "title": "Family Friendly restaurant Coming to District Heights, MD | Nash & Smashed",
    "seo_friendly_url": "family-friendly-restaurant/district-heights-md",
    "keyword": "Family Friendly restaurant",
    "location": "District Heights MD",
    "id": 264,
    "city": "District Heights",
    "state": "MD"
  },
  {
    "title": "Best Smashed Burgers Coming to Lorton, VA | Nash & Smashed",
    "seo_friendly_url": "best-smashed-burgers/lorton-va",
    "keyword": "Best Smashed Burgers",
    "location": "Lorton VA",
    "id": 263,
    "city": "Lorton",
    "state": "VA"
  },
  {
    "title": "Gourmet Burgers Restaurant Coming to Temple Hills, MD | Nash & Smashed",
    "seo_friendly_url": "gourmet-burgers-restaurant/temple-hills-md",
    "keyword": "Gourmet Burgers Restaurant",
    "location": "Temple Hills MD",
    "id": 262,
    "city": "Temple Hills",
    "state": "MD"
  },
  {
    "title": "Craft Mocktails Coming to District Heights, MD | Nash & Smashed",
    "seo_friendly_url": "craft-mocktails/district-heights-md",
    "keyword": "Craft Mocktails",
    "location": "District Heights MD",
    "id": 261,
    "city": "District Heights",
    "state": "MD"
  },
  {
    "title": "Best Milk Shakes Coming to Warrenton, VA | Nash & Smashed",
    "seo_friendly_url": "best-milk-shakes/warrenton-va",
    "keyword": "Best Milk Shakes",
    "location": "Warrenton VA",
    "id": 260,
    "city": "Warrenton",
    "state": "VA"
  },
  {
    "title": "Best Nashville Sandwiches Coming to Lorton, VA | Nash & Smashed",
    "seo_friendly_url": "best-nashville-sandwiches/lorton-va",
    "keyword": "Best Nashville Sandwiches",
    "location": "Lorton VA",
    "id": 259,
    "city": "Lorton",
    "state": "VA"
  },
  {
    "title": "Open Till Late Coming to Lanham, MD | Nash & Smashed",
    "seo_friendly_url": "open-till-late/lanham-md",
    "keyword": "Open Till Late",
    "location": "Lanham MD",
    "id": 258,
    "city": "Lanham",
    "state": "MD"
  },
  {
    "title": "Fast Food Coming to Reston, VA | Nash & Smashed",
    "seo_friendly_url": "fast-food/reston-va",
    "keyword": "Fast Food",
    "location": "Reston VA",
    "id": 257,
    "city": "Reston",
    "state": "VA"
  },
  {
    "title": "Halal Desi Restaurant Coming to Reston, VA | Nash & Smashed",
    "seo_friendly_url": "halal-desi-restaurant/reston-va",
    "keyword": "Halal Desi Restaurant",
    "location": "Reston VA",
    "id": 256,
    "city": "Reston",
    "state": "VA"
  },
  {
    "title": "Craft Mocktails Coming to H St NE, DC | Nash & Smashed",
    "seo_friendly_url": "craft-mocktails/h-st-ne-dc",
    "keyword": "Craft Mocktails",
    "location": "H St NE DC",
    "id": 255,
    "city": "H St NE",
    "state": "DC"
  },
  {
    "title": "Finger Licking Fried Chicken Coming to Warrenton, VA | Nash & Smashed",
    "seo_friendly_url": "finger-licking-fried-chicken/warrenton-va",
    "keyword": "Finger Licking Fried Chicken",
    "location": "Warrenton VA",
    "id": 254,
    "city": "Warrenton",
    "state": "VA"
  },
  {
    "title": "Best Chicken Wings Coming to Arlington, VA | Nash & Smashed",
    "seo_friendly_url": "best-chicken-wings/arlington-va",
    "keyword": "Best Chicken Wings",
    "location": "Arlington VA",
    "id": 253,
    "city": "Arlington",
    "state": "VA"
  },
  {
    "title": "Halal Desi Restaurant Coming to Lorton, VA | Nash & Smashed",
    "seo_friendly_url": "halal-desi-restaurant/lorton-va",
    "keyword": "Halal Desi Restaurant",
    "location": "Lorton VA",
    "id": 252,
    "city": "Lorton",
    "state": "VA"
  },
  {
    "title": "Best Nashville Sandwiches Coming to Michigan Ave NE, DC | Nash & Smashed",
    "seo_friendly_url": "best-nashville-sandwiches/michigan-ave-ne-dc",
    "keyword": "Best Nashville Sandwiches",
    "location": "Michigan Ave NE DC",
    "id": 251,
    "city": "Michigan Ave NE",
    "state": "DC"
  },
  {
    "title": "Best in Town Fried chicken & Burgers Coming to Glen Allen, VA | Nash & Smashed",
    "seo_friendly_url": "best-in-town-fried-chicken-burgers/glen-allen-va",
    "keyword": "Best in Town Fried chicken & Burgers",
    "location": "Glen Allen VA",
    "id": 250,
    "city": "Glen Allen",
    "state": "VA"
  },
  {
    "title": "Halal Fried Chicken Coming to Michigan Ave NE, DC | Nash & Smashed",
    "seo_friendly_url": "halal-fried-chicken/michigan-ave-ne-dc",
    "keyword": "Halal Fried Chicken",
    "location": "Michigan Ave NE DC",
    "id": 249,
    "city": "Michigan Ave NE",
    "state": "DC"
  },
  {
    "title": "Halal Burgers Coming to Woodbridge, VA | Nash & Smashed",
    "seo_friendly_url": "halal-burgers/woodbridge-va",
    "keyword": "Halal Burgers",
    "location": "Woodbridge VA",
    "id": 248,
    "city": "Woodbridge",
    "state": "VA"
  },
  {
    "title": "Best Halal Restaurant Coming to Arlington, VA | Nash & Smashed",
    "seo_friendly_url": "best-halal-restaurant/arlington-va",
    "keyword": "Best Halal Restaurant",
    "location": "Arlington VA",
    "id": 247,
    "city": "Arlington",
    "state": "VA"
  },
  {
    "title": "Best Smashed Burgers Coming to Lanham, MD | Nash & Smashed",
    "seo_friendly_url": "best-smashed-burgers/lanham-md",
    "keyword": "Best Smashed Burgers",
    "location": "Lanham MD",
    "id": 246,
    "city": "Lanham",
    "state": "MD"
  },
  {
    "title": "Best Smashed Burgers Coming to Reston, VA | Nash & Smashed",
    "seo_friendly_url": "best-smashed-burgers/reston-va",
    "keyword": "Best Smashed Burgers",
    "location": "Reston VA",
    "id": 245,
    "city": "Reston",
    "state": "VA"
  },
  {
    "title": "Best Smashed Burgers Coming to Manassas Park, VA | Nash & Smashed",
    "seo_friendly_url": "best-smashed-burgers/manassas-park-va",
    "keyword": "Best Smashed Burgers",
    "location": "Manassas Park VA",
    "id": 244,
    "city": "Manassas Park",
    "state": "VA"
  },
  {
    "title": "Best Smashed Burgers Coming to Abingdon, MD | Nash & Smashed",
    "seo_friendly_url": "best-smashed-burgers/abingdon-md",
    "keyword": "Best Smashed Burgers",
    "location": "Abingdon MD",
    "id": 243,
    "city": "Abingdon",
    "state": "MD"
  },
  {
    "title": "Fast Food Coming to Woodbridge, VA | Nash & Smashed",
    "seo_friendly_url": "fast-food/woodbridge-va",
    "keyword": "Fast Food",
    "location": "Woodbridge VA",
    "id": 242,
    "city": "Woodbridge",
    "state": "VA"
  },
  {
    "title": "Open Till Late Coming to Warrenton, VA | Nash & Smashed",
    "seo_friendly_url": "open-till-late/warrenton-va",
    "keyword": "Open Till Late",
    "location": "Warrenton VA",
    "id": 241,
    "city": "Warrenton",
    "state": "VA"
  },
  {
    "title": "Fast Food Coming to Glen Allen, VA | Nash & Smashed",
    "seo_friendly_url": "fast-food/glen-allen-va",
    "keyword": "Fast Food",
    "location": "Glen Allen VA",
    "id": 240,
    "city": "Glen Allen",
    "state": "VA"
  },
  {
    "title": "Best in Town Fried chicken & Burgers Coming to Southeast, DC | Nash & Smashed",
    "seo_friendly_url": "best-in-town-fried-chicken-burgers/southeast-dc",
    "keyword": "Best in Town Fried chicken & Burgers",
    "location": "Southeast DC",
    "id": 239,
    "city": "Southeast",
    "state": "DC"
  },
  {
    "title": "Best Milk Shakes Coming to Reston, VA | Nash & Smashed",
    "seo_friendly_url": "best-milk-shakes/reston-va",
    "keyword": "Best Milk Shakes",
    "location": "Reston VA",
    "id": 238,
    "city": "Reston",
    "state": "VA"
  },
  {
    "title": "Dine in & Takeout Restaurant Coming to Manassas Park, VA | Nash & Smashed",
    "seo_friendly_url": "dine-in-takeout-restaurant/manassas-park-va",
    "keyword": "Dine in & Takeout Restaurant",
    "location": "Manassas Park VA",
    "id": 237,
    "city": "Manassas Park",
    "state": "VA"
  },
  {
    "title": "Best Chicken Wings Coming to Glen Allen, VA | Nash & Smashed",
    "seo_friendly_url": "best-chicken-wings/glen-allen-va",
    "keyword": "Best Chicken Wings",
    "location": "Glen Allen VA",
    "id": 236,
    "city": "Glen Allen",
    "state": "VA"
  },
  {
    "title": "Quick Bites Coming to Temple Hills, MD | Nash & Smashed",
    "seo_friendly_url": "quick-bites/temple-hills-md",
    "keyword": "Quick Bites",
    "location": "Temple Hills MD",
    "id": 235,
    "city": "Temple Hills",
    "state": "MD"
  },
  {
    "title": "Craft Mocktails Coming to Warrenton, VA | Nash & Smashed",
    "seo_friendly_url": "craft-mocktails/warrenton-va",
    "keyword": "Craft Mocktails",
    "location": "Warrenton VA",
    "id": 234,
    "city": "Warrenton",
    "state": "VA"
  },
  {
    "title": "Dine in & Takeout Restaurant Coming to Warrenton, VA | Nash & Smashed",
    "seo_friendly_url": "dine-in-takeout-restaurant/warrenton-va",
    "keyword": "Dine in & Takeout Restaurant",
    "location": "Warrenton VA",
    "id": 233,
    "city": "Warrenton",
    "state": "VA"
  },
  {
    "title": "Halal American Restaurant Coming to Arlington, VA | Nash & Smashed",
    "seo_friendly_url": "halal-american-restaurant/arlington-va",
    "keyword": "Halal American Restaurant",
    "location": "Arlington VA",
    "id": 232,
    "city": "Arlington",
    "state": "VA"
  },
  {
    "title": "Dine in & Takeout Restaurant Coming to Reston, VA | Nash & Smashed",
    "seo_friendly_url": "dine-in-takeout-restaurant/reston-va",
    "keyword": "Dine in & Takeout Restaurant",
    "location": "Reston VA",
    "id": 231,
    "city": "Reston",
    "state": "VA"
  },
  {
    "title": "Halal Desi Restaurant Coming to District Heights, MD | Nash & Smashed",
    "seo_friendly_url": "halal-desi-restaurant/district-heights-md",
    "keyword": "Halal Desi Restaurant",
    "location": "District Heights MD",
    "id": 230,
    "city": "District Heights",
    "state": "MD"
  },
  {
    "title": "Halal American Restaurant Coming to Lorton, VA | Nash & Smashed",
    "seo_friendly_url": "halal-american-restaurant/lorton-va",
    "keyword": "Halal American Restaurant",
    "location": "Lorton VA",
    "id": 229,
    "city": "Lorton",
    "state": "VA"
  },
  {
    "title": "Quick Bites Coming to Southeast, DC | Nash & Smashed",
    "seo_friendly_url": "quick-bites/southeast-dc",
    "keyword": "Quick Bites",
    "location": "Southeast DC",
    "id": 228,
    "city": "Southeast",
    "state": "DC"
  },
  {
    "title": "Halal Burgers Coming to Warrenton, VA | Nash & Smashed",
    "seo_friendly_url": "halal-burgers/warrenton-va",
    "keyword": "Halal Burgers",
    "location": "Warrenton VA",
    "id": 227,
    "city": "Warrenton",
    "state": "VA"
  },
  {
    "title": "Open Till Late Coming to Arlington, VA | Nash & Smashed",
    "seo_friendly_url": "open-till-late/arlington-va",
    "keyword": "Open Till Late",
    "location": "Arlington VA",
    "id": 226,
    "city": "Arlington",
    "state": "VA"
  },
  {
    "title": "Best in Town Fried chicken & Burgers Coming to Reston, VA | Nash & Smashed",
    "seo_friendly_url": "best-in-town-fried-chicken-burgers/reston-va",
    "keyword": "Best in Town Fried chicken & Burgers",
    "location": "Reston VA",
    "id": 225,
    "city": "Reston",
    "state": "VA"
  },
  {
    "title": "Family Friendly restaurant Coming to Southeast, DC | Nash & Smashed",
    "seo_friendly_url": "family-friendly-restaurant/southeast-dc",
    "keyword": "Family Friendly restaurant",
    "location": "Southeast DC",
    "id": 224,
    "city": "Southeast",
    "state": "DC"
  },
  {
    "title": "Craft Mocktails Coming to Lanham, MD | Nash & Smashed",
    "seo_friendly_url": "craft-mocktails/lanham-md",
    "keyword": "Craft Mocktails",
    "location": "Lanham MD",
    "id": 223,
    "city": "Lanham",
    "state": "MD"
  },
  {
    "title": "Best Chicken Tenders Coming to Woodbridge, VA | Nash & Smashed",
    "seo_friendly_url": "best-chicken-tenders/woodbridge-va",
    "keyword": "Best Chicken Tenders",
    "location": "Woodbridge VA",
    "id": 222,
    "city": "Woodbridge",
    "state": "VA"
  },
  {
    "title": "Quick Bites Coming to Manassas Park, VA | Nash & Smashed",
    "seo_friendly_url": "quick-bites/manassas-park-va",
    "keyword": "Quick Bites",
    "location": "Manassas Park VA",
    "id": 221,
    "city": "Manassas Park",
    "state": "VA"
  },
  {
    "title": "Craft Mocktails Coming to Reston, VA | Nash & Smashed",
    "seo_friendly_url": "craft-mocktails/reston-va",
    "keyword": "Craft Mocktails",
    "location": "Reston VA",
    "id": 220,
    "city": "Reston",
    "state": "VA"
  },
  {
    "title": "Craft Mocktails Coming to Alexandria, VA | Nash & Smashed",
    "seo_friendly_url": "craft-mocktails/alexandria-va",
    "keyword": "Craft Mocktails",
    "location": "Alexandria VA",
    "id": 219,
    "city": "Alexandria",
    "state": "VA"
  },
  {
    "title": "Halal Fried Chicken Coming to Lanham, MD | Nash & Smashed",
    "seo_friendly_url": "halal-fried-chicken/lanham-md",
    "keyword": "Halal Fried Chicken",
    "location": "Lanham MD",
    "id": 218,
    "city": "Lanham",
    "state": "MD"
  },
  {
    "title": "Best Nashville Sandwiches Coming to Southeast, DC | Nash & Smashed",
    "seo_friendly_url": "best-nashville-sandwiches/southeast-dc",
    "keyword": "Best Nashville Sandwiches",
    "location": "Southeast DC",
    "id": 217,
    "city": "Southeast",
    "state": "DC"
  },
  {
    "title": "Best in Town Fried chicken & Burgers Coming to Manassas Park, VA | Nash & Smashed",
    "seo_friendly_url": "best-in-town-fried-chicken-burgers/manassas-park-va",
    "keyword": "Best in Town Fried chicken & Burgers",
    "location": "Manassas Park VA",
    "id": 216,
    "city": "Manassas Park",
    "state": "VA"
  },
  {
    "title": "Craft Mocktails Coming to Southeast, DC | Nash & Smashed",
    "seo_friendly_url": "craft-mocktails/southeast-dc",
    "keyword": "Craft Mocktails",
    "location": "Southeast DC",
    "id": 215,
    "city": "Southeast",
    "state": "DC"
  },
  {
    "title": "Best Chicken Tenders Coming to Manassas Park, VA | Nash & Smashed",
    "seo_friendly_url": "best-chicken-tenders/manassas-park-va",
    "keyword": "Best Chicken Tenders",
    "location": "Manassas Park VA",
    "id": 214,
    "city": "Manassas Park",
    "state": "VA"
  },
  {
    "title": "Finger Licking Fried Chicken Coming to Reston, VA | Nash & Smashed",
    "seo_friendly_url": "finger-licking-fried-chicken/reston-va",
    "keyword": "Finger Licking Fried Chicken",
    "location": "Reston VA",
    "id": 213,
    "city": "Reston",
    "state": "VA"
  },
  {
    "title": "Halal Desi Restaurant Coming to H St NE, DC | Nash & Smashed",
    "seo_friendly_url": "halal-desi-restaurant/h-st-ne-dc",
    "keyword": "Halal Desi Restaurant",
    "location": "H St NE DC",
    "id": 212,
    "city": "H St NE",
    "state": "DC"
  },
  {
    "title": "Best waffles in town Coming to Warrenton, VA | Nash & Smashed",
    "seo_friendly_url": "best-waffles-in-town/warrenton-va",
    "keyword": "Best waffles in town",
    "location": "Warrenton VA",
    "id": 211,
    "city": "Warrenton",
    "state": "VA"
  },
  {
    "title": "Open Till Late Coming to H St NE, DC | Nash & Smashed",
    "seo_friendly_url": "open-till-late/h-st-ne-dc",
    "keyword": "Open Till Late",
    "location": "H St NE DC",
    "id": 210,
    "city": "H St NE",
    "state": "DC"
  },
  {
    "title": "Best Chicken Wings Coming to Reston, VA | Nash & Smashed",
    "seo_friendly_url": "best-chicken-wings/reston-va",
    "keyword": "Best Chicken Wings",
    "location": "Reston VA",
    "id": 209,
    "city": "Reston",
    "state": "VA"
  },
  {
    "title": "Quick Bites Coming to Michigan Ave NE, DC | Nash & Smashed",
    "seo_friendly_url": "quick-bites/michigan-ave-ne-dc",
    "keyword": "Quick Bites",
    "location": "Michigan Ave NE DC",
    "id": 208,
    "city": "Michigan Ave NE",
    "state": "DC"
  },
  {
    "title": "Best in Town Fried chicken & Burgers Coming to H St NE, DC | Nash & Smashed",
    "seo_friendly_url": "best-in-town-fried-chicken-burgers/h-st-ne-dc",
    "keyword": "Best in Town Fried chicken & Burgers",
    "location": "H St NE DC",
    "id": 207,
    "city": "H St NE",
    "state": "DC"
  },
  {
    "title": "Halal Desi Restaurant Coming to Manassas Park, VA | Nash & Smashed",
    "seo_friendly_url": "halal-desi-restaurant/manassas-park-va",
    "keyword": "Halal Desi Restaurant",
    "location": "Manassas Park VA",
    "id": 206,
    "city": "Manassas Park",
    "state": "VA"
  },
  {
    "title": "Best Milk Shakes Coming to Manassas Park, VA | Nash & Smashed",
    "seo_friendly_url": "best-milk-shakes/manassas-park-va",
    "keyword": "Best Milk Shakes",
    "location": "Manassas Park VA",
    "id": 205,
    "city": "Manassas Park",
    "state": "VA"
  },
  {
    "title": "Best Halal Restaurant Coming to District Heights, MD | Nash & Smashed",
    "seo_friendly_url": "best-halal-restaurant/district-heights-md",
    "keyword": "Best Halal Restaurant",
    "location": "District Heights MD",
    "id": 204,
    "city": "District Heights",
    "state": "MD"
  },
  {
    "title": "Craft Mocktails Coming to Arlington, VA | Nash & Smashed",
    "seo_friendly_url": "craft-mocktails/arlington-va",
    "keyword": "Craft Mocktails",
    "location": "Arlington VA",
    "id": 203,
    "city": "Arlington",
    "state": "VA"
  },
  {
    "title": "Best Milk Shakes Coming to H St NE, DC | Nash & Smashed",
    "seo_friendly_url": "best-milk-shakes/h-st-ne-dc",
    "keyword": "Best Milk Shakes",
    "location": "H St NE DC",
    "id": 202,
    "city": "H St NE",
    "state": "DC"
  },
  {
    "title": "Best Smashed Burgers Coming to Temple Hills, MD | Nash & Smashed",
    "seo_friendly_url": "best-smashed-burgers/temple-hills-md",
    "keyword": "Best Smashed Burgers",
    "location": "Temple Hills MD",
    "id": 201,
    "city": "Temple Hills",
    "state": "MD"
  },
  {
    "title": "Best Chicken Tenders Coming to Lanham, MD | Nash & Smashed",
    "seo_friendly_url": "best-chicken-tenders/lanham-md",
    "keyword": "Best Chicken Tenders",
    "location": "Lanham MD",
    "id": 200,
    "city": "Lanham",
    "state": "MD"
  },
  {
    "title": "Halal Burgers Coming to Alexandria, VA | Nash & Smashed",
    "seo_friendly_url": "halal-burgers/alexandria-va",
    "keyword": "Halal Burgers",
    "location": "Alexandria VA",
    "id": 199,
    "city": "Alexandria",
    "state": "VA"
  },
  {
    "title": "Quick Bites Coming to Arlington, VA | Nash & Smashed",
    "seo_friendly_url": "quick-bites/arlington-va",
    "keyword": "Quick Bites",
    "location": "Arlington VA",
    "id": 198,
    "city": "Arlington",
    "state": "VA"
  },
  {
    "title": "Fast Food Coming to Warrenton, VA | Nash & Smashed",
    "seo_friendly_url": "fast-food/warrenton-va",
    "keyword": "Fast Food",
    "location": "Warrenton VA",
    "id": 197,
    "city": "Warrenton",
    "state": "VA"
  },
  {
    "title": "Halal Desi Restaurant Coming to Southeast, DC | Nash & Smashed",
    "seo_friendly_url": "halal-desi-restaurant/southeast-dc",
    "keyword": "Halal Desi Restaurant",
    "location": "Southeast DC",
    "id": 196,
    "city": "Southeast",
    "state": "DC"
  },
  {
    "title": "Halal Fried Chicken Coming to Glen Allen, VA | Nash & Smashed",
    "seo_friendly_url": "halal-fried-chicken/glen-allen-va",
    "keyword": "Halal Fried Chicken",
    "location": "Glen Allen VA",
    "id": 195,
    "city": "Glen Allen",
    "state": "VA"
  },
  {
    "title": "Gourmet Burgers Restaurant Coming to Lorton, VA | Nash & Smashed",
    "seo_friendly_url": "gourmet-burgers-restaurant/lorton-va",
    "keyword": "Gourmet Burgers Restaurant",
    "location": "Lorton VA",
    "id": 194,
    "city": "Lorton",
    "state": "VA"
  },
  {
    "title": "Halal Burgers Coming to Abingdon, MD | Nash & Smashed",
    "seo_friendly_url": "halal-burgers/abingdon-md",
    "keyword": "Halal Burgers",
    "location": "Abingdon MD",
    "id": 193,
    "city": "Abingdon",
    "state": "MD"
  },
  {
    "title": "Open Till Late Coming to Manassas Park, VA | Nash & Smashed",
    "seo_friendly_url": "open-till-late/manassas-park-va",
    "keyword": "Open Till Late",
    "location": "Manassas Park VA",
    "id": 192,
    "city": "Manassas Park",
    "state": "VA"
  },
  {
    "title": "Best fried Chicken Coming to Arlington, VA | Nash & Smashed",
    "seo_friendly_url": "best-fried-chicken/arlington-va",
    "keyword": "Best fried Chicken",
    "location": "Arlington VA",
    "id": 191,
    "city": "Arlington",
    "state": "VA"
  },
  {
    "title": "Dine in & Takeout Restaurant Coming to District Heights, MD | Nash & Smashed",
    "seo_friendly_url": "dine-in-takeout-restaurant/district-heights-md",
    "keyword": "Dine in & Takeout Restaurant",
    "location": "District Heights MD",
    "id": 190,
    "city": "District Heights",
    "state": "MD"
  },
  {
    "title": "Craft Mocktails Coming to Woodbridge, VA | Nash & Smashed",
    "seo_friendly_url": "craft-mocktails/woodbridge-va",
    "keyword": "Craft Mocktails",
    "location": "Woodbridge VA",
    "id": 189,
    "city": "Woodbridge",
    "state": "VA"
  },
  {
    "title": "Halal Desi Restaurant Coming to Michigan Ave NE, DC | Nash & Smashed",
    "seo_friendly_url": "halal-desi-restaurant/michigan-ave-ne-dc",
    "keyword": "Halal Desi Restaurant",
    "location": "Michigan Ave NE DC",
    "id": 188,
    "city": "Michigan Ave NE",
    "state": "DC"
  },
  {
    "title": "Family Friendly restaurant Coming to Reston, VA | Nash & Smashed",
    "seo_friendly_url": "family-friendly-restaurant/reston-va",
    "keyword": "Family Friendly restaurant",
    "location": "Reston VA",
    "id": 187,
    "city": "Reston",
    "state": "VA"
  },
  {
    "title": "Best fried Chicken Coming to H St NE, DC | Nash & Smashed",
    "seo_friendly_url": "best-fried-chicken/h-st-ne-dc",
    "keyword": "Best fried Chicken",
    "location": "H St NE DC",
    "id": 186,
    "city": "H St NE",
    "state": "DC"
  },
  {
    "title": "Best Milk Shakes Coming to District Heights, MD | Nash & Smashed",
    "seo_friendly_url": "best-milk-shakes/district-heights-md",
    "keyword": "Best Milk Shakes",
    "location": "District Heights MD",
    "id": 185,
    "city": "District Heights",
    "state": "MD"
  },
  {
    "title": "Fast Food Coming to Lanham, MD | Nash & Smashed",
    "seo_friendly_url": "fast-food/lanham-md",
    "keyword": "Fast Food",
    "location": "Lanham MD",
    "id": 184,
    "city": "Lanham",
    "state": "MD"
  },
  {
    "title": "Best fried Chicken Coming to Woodbridge, VA | Nash & Smashed",
    "seo_friendly_url": "best-fried-chicken/woodbridge-va",
    "keyword": "Best fried Chicken",
    "location": "Woodbridge VA",
    "id": 183,
    "city": "Woodbridge",
    "state": "VA"
  },
  {
    "title": "Finger Licking Fried Chicken Coming to H St NE, DC | Nash & Smashed",
    "seo_friendly_url": "finger-licking-fried-chicken/h-st-ne-dc",
    "keyword": "Finger Licking Fried Chicken",
    "location": "H St NE DC",
    "id": 182,
    "city": "H St NE",
    "state": "DC"
  },
  {
    "title": "Best Halal Restaurant Coming to Abingdon, MD | Nash & Smashed",
    "seo_friendly_url": "best-halal-restaurant/abingdon-md",
    "keyword": "Best Halal Restaurant",
    "location": "Abingdon MD",
    "id": 181,
    "city": "Abingdon",
    "state": "MD"
  },
  {
    "title": "Best Chicken Tenders Coming to Glen Allen, VA | Nash & Smashed",
    "seo_friendly_url": "best-chicken-tenders/glen-allen-va",
    "keyword": "Best Chicken Tenders",
    "location": "Glen Allen VA",
    "id": 180,
    "city": "Glen Allen",
    "state": "VA"
  },
  {
    "title": "Halal Fried Chicken Coming to Alexandria, VA | Nash & Smashed",
    "seo_friendly_url": "halal-fried-chicken/alexandria-va",
    "keyword": "Halal Fried Chicken",
    "location": "Alexandria VA",
    "id": 179,
    "city": "Alexandria",
    "state": "VA"
  },
  {
    "title": "Best Nashville Sandwiches Coming to Reston, VA | Nash & Smashed",
    "seo_friendly_url": "best-nashville-sandwiches/reston-va",
    "keyword": "Best Nashville Sandwiches",
    "location": "Reston VA",
    "id": 178,
    "city": "Reston",
    "state": "VA"
  },
  {
    "title": "Dine in & Takeout Restaurant Coming to Southeast, DC | Nash & Smashed",
    "seo_friendly_url": "dine-in-takeout-restaurant/southeast-dc",
    "keyword": "Dine in & Takeout Restaurant",
    "location": "Southeast DC",
    "id": 177,
    "city": "Southeast",
    "state": "DC"
  },
  {
    "title": "Best Milk Shakes Coming to Temple Hills, MD | Nash & Smashed",
    "seo_friendly_url": "best-milk-shakes/temple-hills-md",
    "keyword": "Best Milk Shakes",
    "location": "Temple Hills MD",
    "id": 176,
    "city": "Temple Hills",
    "state": "MD"
  },
  {
    "title": "Best Nashville Sandwiches Coming to H St NE, DC | Nash & Smashed",
    "seo_friendly_url": "best-nashville-sandwiches/h-st-ne-dc",
    "keyword": "Best Nashville Sandwiches",
    "location": "H St NE DC",
    "id": 175,
    "city": "H St NE",
    "state": "DC"
  },
  {
    "title": "Halal Fried Chicken Coming to Reston, VA | Nash & Smashed",
    "seo_friendly_url": "halal-fried-chicken/reston-va",
    "keyword": "Halal Fried Chicken",
    "location": "Reston VA",
    "id": 174,
    "city": "Reston",
    "state": "VA"
  },
  {
    "title": "Best Halal Restaurant Coming to Warrenton, VA | Nash & Smashed",
    "seo_friendly_url": "best-halal-restaurant/warrenton-va",
    "keyword": "Best Halal Restaurant",
    "location": "Warrenton VA",
    "id": 173,
    "city": "Warrenton",
    "state": "VA"
  },
  {
    "title": "Gourmet Burgers Restaurant Coming to Alexandria, VA | Nash & Smashed",
    "seo_friendly_url": "gourmet-burgers-restaurant/alexandria-va",
    "keyword": "Gourmet Burgers Restaurant",
    "location": "Alexandria VA",
    "id": 172,
    "city": "Alexandria",
    "state": "VA"
  },
  {
    "title": "Best fried Chicken Coming to Reston, VA | Nash & Smashed",
    "seo_friendly_url": "best-fried-chicken/reston-va",
    "keyword": "Best fried Chicken",
    "location": "Reston VA",
    "id": 171,
    "city": "Reston",
    "state": "VA"
  },
  {
    "title": "Fast Food Coming to Temple Hills, MD | Nash & Smashed",
    "seo_friendly_url": "fast-food/temple-hills-md",
    "keyword": "Fast Food",
    "location": "Temple Hills MD",
    "id": 170,
    "city": "Temple Hills",
    "state": "MD"
  },
  {
    "title": "Fast Food Coming to Lorton, VA | Nash & Smashed",
    "seo_friendly_url": "fast-food/lorton-va",
    "keyword": "Fast Food",
    "location": "Lorton VA",
    "id": 169,
    "city": "Lorton",
    "state": "VA"
  },
  {
    "title": "Best Quick Bites in Hampton, VA | Nash & Smashed",
    "seo_friendly_url": "quick-bites/hampton-va",
    "keyword": "Quick Bites",
    "location": "Hampton VA",
    "id": 168,
    "city": "Hampton",
    "state": "VA"
  },
  {
    "title": "Best Best Chicken Tenders in Chelmsford, Essex | Nash & Smashed",
    "seo_friendly_url": "best-chicken-tenders/chelmsford-essex",
    "keyword": "Best Chicken Tenders",
    "location": "Chelmsford Essex",
    "id": 167,
    "city": "Chelmsford",
    "state": "Essex"
  },
  {
    "title": "Best Best in Town Fried chicken & Burgers in Manassas, VA | Nash & Smashed",
    "seo_friendly_url": "best-in-town-fried-chicken-burgers/manassas-va",
    "keyword": "Best in Town Fried chicken & Burgers",
    "location": "Manassas VA",
    "id": 166,
    "city": "Manassas",
    "state": "VA"
  },
  {
    "title": "Best Family Friendly restaurant in Chelmsford, Essex | Nash & Smashed",
    "seo_friendly_url": "family-friendly-restaurant/chelmsford-essex",
    "keyword": "Family Friendly restaurant",
    "location": "Chelmsford Essex",
    "id": 165,
    "city": "Chelmsford",
    "state": "Essex"
  },
  {
    "title": "Best Open Till Late in Chelmsford, Essex | Nash & Smashed",
    "seo_friendly_url": "open-till-late/chelmsford-essex",
    "keyword": "Open Till Late",
    "location": "Chelmsford Essex",
    "id": 164,
    "city": "Chelmsford",
    "state": "Essex"
  },
  {
    "title": "Best Best waffles in town in Dumfries, VA | Nash & Smashed",
    "seo_friendly_url": "best-waffles-in-town/dumfries-va",
    "keyword": "Best waffles in town",
    "location": "Dumfries VA",
    "id": 163,
    "city": "Dumfries",
    "state": "VA"
  },
  {
    "title": "Best Halal Fried Chicken in Connecticut Ave NW, DC | Nash & Smashed",
    "seo_friendly_url": "halal-fried-chicken/connecticut-ave-nw-dc",
    "keyword": "Halal Fried Chicken",
    "location": "Connecticut Ave NW DC",
    "id": 162,
    "city": "Connecticut Ave NW",
    "state": "DC"
  },
  {
    "title": "Best Halal Desi Restaurant in Norfolk, VA | Nash & Smashed",
    "seo_friendly_url": "halal-desi-restaurant/norfolk-va",
    "keyword": "Halal Desi Restaurant",
    "location": "Norfolk VA",
    "id": 161,
    "city": "Norfolk",
    "state": "VA"
  },
  {
    "title": "Best Best Smashed Burgers in Manassas, VA | Nash & Smashed",
    "seo_friendly_url": "best-smashed-burgers/manassas-va",
    "keyword": "Best Smashed Burgers",
    "location": "Manassas VA",
    "id": 160,
    "city": "Manassas",
    "state": "VA"
  },
  {
    "title": "Best Best Halal Restaurant in Hampton, VA | Nash & Smashed",
    "seo_friendly_url": "best-halal-restaurant/hampton-va",
    "keyword": "Best Halal Restaurant",
    "location": "Hampton VA",
    "id": 159,
    "city": "Hampton",
    "state": "VA"
  },
  {
    "title": "Best Open Till Late in Silver Spring, MD | Nash & Smashed",
    "seo_friendly_url": "open-till-late/silver-spring-md",
    "keyword": "Open Till Late",
    "location": "Silver Spring MD",
    "id": 158,
    "city": "Silver Spring",
    "state": "MD"
  },
  {
    "title": "Best Family Friendly restaurant in Silver Spring, MD | Nash & Smashed",
    "seo_friendly_url": "family-friendly-restaurant/silver-spring-md",
    "keyword": "Family Friendly restaurant",
    "location": "Silver Spring MD",
    "id": 157,
    "city": "Silver Spring",
    "state": "MD"
  },
  {
    "title": "Best Halal Burgers in Dumfries, VA | Nash & Smashed",
    "seo_friendly_url": "halal-burgers/dumfries-va",
    "keyword": "Halal Burgers",
    "location": "Dumfries VA",
    "id": 156,
    "city": "Dumfries",
    "state": "VA"
  },
  {
    "title": "Best Best waffles in town in Baltimore, MD | Nash & Smashed",
    "seo_friendly_url": "best-waffles-in-town/baltimore-md",
    "keyword": "Best waffles in town",
    "location": "Baltimore MD",
    "id": 155,
    "city": "Baltimore",
    "state": "MD"
  },
  {
    "title": "Best Finger Licking Fried Chicken in Hampton, VA | Nash & Smashed",
    "seo_friendly_url": "finger-licking-fried-chicken/hampton-va",
    "keyword": "Finger Licking Fried Chicken",
    "location": "Hampton VA",
    "id": 154,
    "city": "Hampton",
    "state": "VA"
  },
  {
    "title": "Best Craft Mocktails in Baltimore, MD | Nash & Smashed",
    "seo_friendly_url": "craft-mocktails/baltimore-md",
    "keyword": "Craft Mocktails",
    "location": "Baltimore MD",
    "id": 153,
    "city": "Baltimore",
    "state": "MD"
  },
  {
    "title": "Best Halal Desi Restaurant in Chelmsford, Essex | Nash & Smashed",
    "seo_friendly_url": "halal-desi-restaurant/chelmsford-essex",
    "keyword": "Halal Desi Restaurant",
    "location": "Chelmsford Essex",
    "id": 152,
    "city": "Chelmsford",
    "state": "Essex"
  },
  {
    "title": "Best Fast Food in Baltimore, MD | Nash & Smashed",
    "seo_friendly_url": "fast-food/baltimore-md",
    "keyword": "Fast Food",
    "location": "Baltimore MD",
    "id": 151,
    "city": "Baltimore",
    "state": "MD"
  },
  {
    "title": "Best Quick Bites in Baltimore, MD | Nash & Smashed",
    "seo_friendly_url": "quick-bites/baltimore-md",
    "keyword": "Quick Bites",
    "location": "Baltimore MD",
    "id": 150,
    "city": "Baltimore",
    "state": "MD"
  },
  {
    "title": "Best Best Milk Shakes in Dumfries, VA | Nash & Smashed",
    "seo_friendly_url": "best-milk-shakes/dumfries-va",
    "keyword": "Best Milk Shakes",
    "location": "Dumfries VA",
    "id": 149,
    "city": "Dumfries",
    "state": "VA"
  },
  {
    "title": "Best Best Chicken Wings in Chelmsford, Essex | Nash & Smashed",
    "seo_friendly_url": "best-chicken-wings/chelmsford-essex",
    "keyword": "Best Chicken Wings",
    "location": "Chelmsford Essex",
    "id": 148,
    "city": "Chelmsford",
    "state": "Essex"
  },
  {
    "title": "Best Best Milk Shakes in Norfolk, VA | Nash & Smashed",
    "seo_friendly_url": "best-milk-shakes/norfolk-va",
    "keyword": "Best Milk Shakes",
    "location": "Norfolk VA",
    "id": 147,
    "city": "Norfolk",
    "state": "VA"
  },
  {
    "title": "Best Best Chicken Wings in Dumfries, VA | Nash & Smashed",
    "seo_friendly_url": "best-chicken-wings/dumfries-va",
    "keyword": "Best Chicken Wings",
    "location": "Dumfries VA",
    "id": 146,
    "city": "Dumfries",
    "state": "VA"
  },
  {
    "title": "Best Fast Food in Connecticut Ave NW, DC | Nash & Smashed",
    "seo_friendly_url": "fast-food/connecticut-ave-nw-dc",
    "keyword": "Fast Food",
    "location": "Connecticut Ave NW DC",
    "id": 145,
    "city": "Connecticut Ave NW",
    "state": "DC"
  },
  {
    "title": "Best Open Till Late in Baltimore, MD | Nash & Smashed",
    "seo_friendly_url": "open-till-late/baltimore-md",
    "keyword": "Open Till Late",
    "location": "Baltimore MD",
    "id": 144,
    "city": "Baltimore",
    "state": "MD"
  },
  {
    "title": "Best Family Friendly restaurant in Baltimore, MD | Nash & Smashed",
    "seo_friendly_url": "family-friendly-restaurant/baltimore-md",
    "keyword": "Family Friendly restaurant",
    "location": "Baltimore MD",
    "id": 143,
    "city": "Baltimore",
    "state": "MD"
  },
  {
    "title": "Best Halal American Restaurant in Connecticut Ave NW, DC | Nash & Smashed",
    "seo_friendly_url": "halal-american-restaurant/connecticut-ave-nw-dc",
    "keyword": "Halal American Restaurant",
    "location": "Connecticut Ave NW DC",
    "id": 142,
    "city": "Connecticut Ave NW",
    "state": "DC"
  },
  {
    "title": "Best Best waffles in town in Chelmsford, Essex | Nash & Smashed",
    "seo_friendly_url": "best-waffles-in-town/chelmsford-essex",
    "keyword": "Best waffles in town",
    "location": "Chelmsford Essex",
    "id": 141,
    "city": "Chelmsford",
    "state": "Essex"
  },
  {
    "title": "Best Craft Mocktails in Connecticut Ave NW, DC | Nash & Smashed",
    "seo_friendly_url": "craft-mocktails/connecticut-ave-nw-dc",
    "keyword": "Craft Mocktails",
    "location": "Connecticut Ave NW DC",
    "id": 140,
    "city": "Connecticut Ave NW",
    "state": "DC"
  },
  {
    "title": "Best Best in Town Fried chicken & Burgers in Connecticut Ave NW, DC | Nash & Smashed",
    "seo_friendly_url": "best-in-town-fried-chicken-burgers/connecticut-ave-nw-dc",
    "keyword": "Best in Town Fried chicken & Burgers",
    "location": "Connecticut Ave NW DC",
    "id": 139,
    "city": "Connecticut Ave NW",
    "state": "DC"
  },
  {
    "title": "Best Dine in & Takeout Restaurant in Chelmsford, Essex | Nash & Smashed",
    "seo_friendly_url": "dine-in-takeout-restaurant/chelmsford-essex",
    "keyword": "Dine in & Takeout Restaurant",
    "location": "Chelmsford Essex",
    "id": 138,
    "city": "Chelmsford",
    "state": "Essex"
  },
  {
    "title": "Best Halal Desi Restaurant in Baltimore, MD | Nash & Smashed",
    "seo_friendly_url": "halal-desi-restaurant/baltimore-md",
    "keyword": "Halal Desi Restaurant",
    "location": "Baltimore MD",
    "id": 137,
    "city": "Baltimore",
    "state": "MD"
  },
  {
    "title": "Best Best Halal Restaurant in Dumfries, VA | Nash & Smashed",
    "seo_friendly_url": "best-halal-restaurant/dumfries-va",
    "keyword": "Best Halal Restaurant",
    "location": "Dumfries VA",
    "id": 136,
    "city": "Dumfries",
    "state": "VA"
  },
  {
    "title": "Best Dine in & Takeout Restaurant in Hampton, VA | Nash & Smashed",
    "seo_friendly_url": "dine-in-takeout-restaurant/hampton-va",
    "keyword": "Dine in & Takeout Restaurant",
    "location": "Hampton VA",
    "id": 135,
    "city": "Hampton",
    "state": "VA"
  },
  {
    "title": "Best Best in Town Fried chicken & Burgers in Baltimore, MD | Nash & Smashed",
    "seo_friendly_url": "best-in-town-fried-chicken-burgers/baltimore-md",
    "keyword": "Best in Town Fried chicken & Burgers",
    "location": "Baltimore MD",
    "id": 134,
    "city": "Baltimore",
    "state": "MD"
  },
  {
    "title": "Best Best fried Chicken in Hampton, VA | Nash & Smashed",
    "seo_friendly_url": "best-fried-chicken/hampton-va",
    "keyword": "Best fried Chicken",
    "location": "Hampton VA",
    "id": 133,
    "city": "Hampton",
    "state": "VA"
  },
  {
    "title": "Best Best Halal Restaurant in Silver Spring, MD | Nash & Smashed",
    "seo_friendly_url": "best-halal-restaurant/silver-spring-md",
    "keyword": "Best Halal Restaurant",
    "location": "Silver Spring MD",
    "id": 132,
    "city": "Silver Spring",
    "state": "MD"
  },
  {
    "title": "Best Best in Town Fried chicken & Burgers in Norfolk, VA | Nash & Smashed",
    "seo_friendly_url": "best-in-town-fried-chicken-burgers/norfolk-va",
    "keyword": "Best in Town Fried chicken & Burgers",
    "location": "Norfolk VA",
    "id": 131,
    "city": "Norfolk",
    "state": "VA"
  },
  {
    "title": "Best Family Friendly restaurant in Norfolk, VA | Nash & Smashed",
    "seo_friendly_url": "family-friendly-restaurant/norfolk-va",
    "keyword": "Family Friendly restaurant",
    "location": "Norfolk VA",
    "id": 130,
    "city": "Norfolk",
    "state": "VA"
  },
  {
    "title": "Best Best Chicken Wings in Norfolk, VA | Nash & Smashed",
    "seo_friendly_url": "best-chicken-wings/norfolk-va",
    "keyword": "Best Chicken Wings",
    "location": "Norfolk VA",
    "id": 129,
    "city": "Norfolk",
    "state": "VA"
  },
  {
    "title": "Best Best Nashville Sandwiches in Connecticut Ave NW, DC | Nash & Smashed",
    "seo_friendly_url": "best-nashville-sandwiches/connecticut-ave-nw-dc",
    "keyword": "Best Nashville Sandwiches",
    "location": "Connecticut Ave NW DC",
    "id": 128,
    "city": "Connecticut Ave NW",
    "state": "DC"
  },
  {
    "title": "Best Halal American Restaurant in Chelmsford, Essex | Nash & Smashed",
    "seo_friendly_url": "halal-american-restaurant/chelmsford-essex",
    "keyword": "Halal American Restaurant",
    "location": "Chelmsford Essex",
    "id": 127,
    "city": "Chelmsford",
    "state": "Essex"
  },
  {
    "title": "Best Quick Bites in Manassas, VA | Nash & Smashed",
    "seo_friendly_url": "quick-bites/manassas-va",
    "keyword": "Quick Bites",
    "location": "Manassas VA",
    "id": 126,
    "city": "Manassas",
    "state": "VA"
  },
  {
    "title": "Best Finger Licking Fried Chicken in Norfolk, VA | Nash & Smashed",
    "seo_friendly_url": "finger-licking-fried-chicken/norfolk-va",
    "keyword": "Finger Licking Fried Chicken",
    "location": "Norfolk VA",
    "id": 125,
    "city": "Norfolk",
    "state": "VA"
  },
  {
    "title": "Best Best Nashville Sandwiches in Chelmsford, Essex | Nash & Smashed",
    "seo_friendly_url": "best-nashville-sandwiches/chelmsford-essex",
    "keyword": "Best Nashville Sandwiches",
    "location": "Chelmsford Essex",
    "id": 124,
    "city": "Chelmsford",
    "state": "Essex"
  },
  {
    "title": "Best Fast Food in Chelmsford, Essex | Nash & Smashed",
    "seo_friendly_url": "fast-food/chelmsford-essex",
    "keyword": "Fast Food",
    "location": "Chelmsford Essex",
    "id": 123,
    "city": "Chelmsford",
    "state": "Essex"
  },
  {
    "title": "Best Finger Licking Fried Chicken in Baltimore, MD | Nash & Smashed",
    "seo_friendly_url": "finger-licking-fried-chicken/baltimore-md",
    "keyword": "Finger Licking Fried Chicken",
    "location": "Baltimore MD",
    "id": 122,
    "city": "Baltimore",
    "state": "MD"
  },
  {
    "title": "Best Halal Fried Chicken in Dumfries, VA | Nash & Smashed",
    "seo_friendly_url": "halal-fried-chicken/dumfries-va",
    "keyword": "Halal Fried Chicken",
    "location": "Dumfries VA",
    "id": 121,
    "city": "Dumfries",
    "state": "VA"
  },
  {
    "title": "Best Best Chicken Tenders in Manassas, VA | Nash & Smashed",
    "seo_friendly_url": "best-chicken-tenders/manassas-va",
    "keyword": "Best Chicken Tenders",
    "location": "Manassas VA",
    "id": 120,
    "city": "Manassas",
    "state": "VA"
  },
  {
    "title": "Best Open Till Late in Dumfries, VA | Nash & Smashed",
    "seo_friendly_url": "open-till-late/dumfries-va",
    "keyword": "Open Till Late",
    "location": "Dumfries VA",
    "id": 119,
    "city": "Dumfries",
    "state": "VA"
  },
  {
    "title": "Best Best Nashville Sandwiches in Dumfries, VA | Nash & Smashed",
    "seo_friendly_url": "best-nashville-sandwiches/dumfries-va",
    "keyword": "Best Nashville Sandwiches",
    "location": "Dumfries VA",
    "id": 118,
    "city": "Dumfries",
    "state": "VA"
  },
  {
    "title": "Best Halal Burgers in Silver Spring, MD | Nash & Smashed",
    "seo_friendly_url": "halal-burgers/silver-spring-md",
    "keyword": "Halal Burgers",
    "location": "Silver Spring MD",
    "id": 117,
    "city": "Silver Spring",
    "state": "MD"
  },
  {
    "title": "Best Open Till Late in Manassas, VA | Nash & Smashed",
    "seo_friendly_url": "open-till-late/manassas-va",
    "keyword": "Open Till Late",
    "location": "Manassas VA",
    "id": 116,
    "city": "Manassas",
    "state": "VA"
  },
  {
    "title": "Best Dine in & Takeout Restaurant in Connecticut Ave NW, DC | Nash & Smashed",
    "seo_friendly_url": "dine-in-takeout-restaurant/connecticut-ave-nw-dc",
    "keyword": "Dine in & Takeout Restaurant",
    "location": "Connecticut Ave NW DC",
    "id": 115,
    "city": "Connecticut Ave NW",
    "state": "DC"
  },
  {
    "title": "Best Halal Fried Chicken in Norfolk, VA | Nash & Smashed",
    "seo_friendly_url": "halal-fried-chicken/norfolk-va",
    "keyword": "Halal Fried Chicken",
    "location": "Norfolk VA",
    "id": 114,
    "city": "Norfolk",
    "state": "VA"
  },
  {
    "title": "Best Best fried Chicken in Norfolk, VA | Nash & Smashed",
    "seo_friendly_url": "best-fried-chicken/norfolk-va",
    "keyword": "Best fried Chicken",
    "location": "Norfolk VA",
    "id": 113,
    "city": "Norfolk",
    "state": "VA"
  },
  {
    "title": "Best Halal American Restaurant in Silver Spring, MD | Nash & Smashed",
    "seo_friendly_url": "halal-american-restaurant/silver-spring-md",
    "keyword": "Halal American Restaurant",
    "location": "Silver Spring MD",
    "id": 112,
    "city": "Silver Spring",
    "state": "MD"
  },
  {
    "title": "Best Best Chicken Tenders in Connecticut Ave NW, DC | Nash & Smashed",
    "seo_friendly_url": "best-chicken-tenders/connecticut-ave-nw-dc",
    "keyword": "Best Chicken Tenders",
    "location": "Connecticut Ave NW DC",
    "id": 111,
    "city": "Connecticut Ave NW",
    "state": "DC"
  },
  {
    "title": "Best Gourmet Burgers Restaurant in Silver Spring, MD | Nash & Smashed",
    "seo_friendly_url": "gourmet-burgers-restaurant/silver-spring-md",
    "keyword": "Gourmet Burgers Restaurant",
    "location": "Silver Spring MD",
    "id": 110,
    "city": "Silver Spring",
    "state": "MD"
  },
  {
    "title": "Best Halal Burgers in Norfolk, VA | Nash & Smashed",
    "seo_friendly_url": "halal-burgers/norfolk-va",
    "keyword": "Halal Burgers",
    "location": "Norfolk VA",
    "id": 109,
    "city": "Norfolk",
    "state": "VA"
  },
  {
    "title": "Best Craft Mocktails in Silver Spring, MD | Nash & Smashed",
    "seo_friendly_url": "craft-mocktails/silver-spring-md",
    "keyword": "Craft Mocktails",
    "location": "Silver Spring MD",
    "id": 108,
    "city": "Silver Spring",
    "state": "MD"
  },
  {
    "title": "Best Best Chicken Wings in Silver Spring, MD | Nash & Smashed",
    "seo_friendly_url": "best-chicken-wings/silver-spring-md",
    "keyword": "Best Chicken Wings",
    "location": "Silver Spring MD",
    "id": 107,
    "city": "Silver Spring",
    "state": "MD"
  },
  {
    "title": "Best Halal Burgers in Baltimore, MD | Nash & Smashed",
    "seo_friendly_url": "halal-burgers/baltimore-md",
    "keyword": "Halal Burgers",
    "location": "Baltimore MD",
    "id": 106,
    "city": "Baltimore",
    "state": "MD"
  },
  {
    "title": "Best Quick Bites in Norfolk, VA | Nash & Smashed",
    "seo_friendly_url": "quick-bites/norfolk-va",
    "keyword": "Quick Bites",
    "location": "Norfolk VA",
    "id": 105,
    "city": "Norfolk",
    "state": "VA"
  },
  {
    "title": "Best Best Halal Restaurant in Connecticut Ave NW, DC | Nash & Smashed",
    "seo_friendly_url": "best-halal-restaurant/connecticut-ave-nw-dc",
    "keyword": "Best Halal Restaurant",
    "location": "Connecticut Ave NW DC",
    "id": 104,
    "city": "Connecticut Ave NW",
    "state": "DC"
  },
  {
    "title": "Best Craft Mocktails in Chelmsford, Essex | Nash & Smashed",
    "seo_friendly_url": "craft-mocktails/chelmsford-essex",
    "keyword": "Craft Mocktails",
    "location": "Chelmsford Essex",
    "id": 103,
    "city": "Chelmsford",
    "state": "Essex"
  },
  {
    "title": "Best Best Milk Shakes in Connecticut Ave NW, DC | Nash & Smashed",
    "seo_friendly_url": "best-milk-shakes/connecticut-ave-nw-dc",
    "keyword": "Best Milk Shakes",
    "location": "Connecticut Ave NW DC",
    "id": 102,
    "city": "Connecticut Ave NW",
    "state": "DC"
  },
  {
    "title": "Best Gourmet Burgers Restaurant in Chelmsford, Essex | Nash & Smashed",
    "seo_friendly_url": "gourmet-burgers-restaurant/chelmsford-essex",
    "keyword": "Gourmet Burgers Restaurant",
    "location": "Chelmsford Essex",
    "id": 101,
    "city": "Chelmsford",
    "state": "Essex"
  },
  {
    "title": "Best Open Till Late in Connecticut Ave NW, DC | Nash & Smashed",
    "seo_friendly_url": "open-till-late/connecticut-ave-nw-dc",
    "keyword": "Open Till Late",
    "location": "Connecticut Ave NW DC",
    "id": 100,
    "city": "Connecticut Ave NW",
    "state": "DC"
  },
  {
    "title": "Best Halal American Restaurant in Hampton, VA | Nash & Smashed",
    "seo_friendly_url": "halal-american-restaurant/hampton-va",
    "keyword": "Halal American Restaurant",
    "location": "Hampton VA",
    "id": 99,
    "city": "Hampton",
    "state": "VA"
  },
  {
    "title": "Best Best in Town Fried chicken & Burgers in Chelmsford, Essex | Nash & Smashed",
    "seo_friendly_url": "best-in-town-fried-chicken-burgers/chelmsford-essex",
    "keyword": "Best in Town Fried chicken & Burgers",
    "location": "Chelmsford Essex",
    "id": 98,
    "city": "Chelmsford",
    "state": "Essex"
  },
  {
    "title": "Best Best Smashed Burgers in Chelmsford, Essex | Nash & Smashed",
    "seo_friendly_url": "best-smashed-burgers/chelmsford-essex",
    "keyword": "Best Smashed Burgers",
    "location": "Chelmsford Essex",
    "id": 97,
    "city": "Chelmsford",
    "state": "Essex"
  },
  {
    "title": "Best Fast Food in Silver Spring, MD | Nash & Smashed",
    "seo_friendly_url": "fast-food/silver-spring-md",
    "keyword": "Fast Food",
    "location": "Silver Spring MD",
    "id": 96,
    "city": "Silver Spring",
    "state": "MD"
  },
  {
    "title": "Best Fast Food in Hampton, VA | Nash & Smashed",
    "seo_friendly_url": "fast-food/hampton-va",
    "keyword": "Fast Food",
    "location": "Hampton VA",
    "id": 95,
    "city": "Hampton",
    "state": "VA"
  },
  {
    "title": "Best Halal Fried Chicken in Silver Spring, MD | Nash & Smashed",
    "seo_friendly_url": "halal-fried-chicken/silver-spring-md",
    "keyword": "Halal Fried Chicken",
    "location": "Silver Spring MD",
    "id": 94,
    "city": "Silver Spring",
    "state": "MD"
  },
  {
    "title": "Best Best fried Chicken in Silver Spring, MD | Nash & Smashed",
    "seo_friendly_url": "best-fried-chicken/silver-spring-md",
    "keyword": "Best fried Chicken",
    "location": "Silver Spring MD",
    "id": 93,
    "city": "Silver Spring",
    "state": "MD"
  },
  {
    "title": "Best Halal Desi Restaurant in Connecticut Ave NW, DC | Nash & Smashed",
    "seo_friendly_url": "halal-desi-restaurant/connecticut-ave-nw-dc",
    "keyword": "Halal Desi Restaurant",
    "location": "Connecticut Ave NW DC",
    "id": 92,
    "city": "Connecticut Ave NW",
    "state": "DC"
  },
  {
    "title": "Best Best Chicken Tenders in Silver Spring, MD | Nash & Smashed",
    "seo_friendly_url": "best-chicken-tenders/silver-spring-md",
    "keyword": "Best Chicken Tenders",
    "location": "Silver Spring MD",
    "id": 91,
    "city": "Silver Spring",
    "state": "MD"
  },
  {
    "title": "Best Best Halal Restaurant in Manassas, VA | Nash & Smashed",
    "seo_friendly_url": "best-halal-restaurant/manassas-va",
    "keyword": "Best Halal Restaurant",
    "location": "Manassas VA",
    "id": 90,
    "city": "Manassas",
    "state": "VA"
  },
  {
    "title": "Best Halal Desi Restaurant in Manassas, VA | Nash & Smashed",
    "seo_friendly_url": "halal-desi-restaurant/manassas-va",
    "keyword": "Halal Desi Restaurant",
    "location": "Manassas VA",
    "id": 89,
    "city": "Manassas",
    "state": "VA"
  },
  {
    "title": "Best Best Nashville Sandwiches in Silver Spring, MD | Nash & Smashed",
    "seo_friendly_url": "best-nashville-sandwiches/silver-spring-md",
    "keyword": "Best Nashville Sandwiches",
    "location": "Silver Spring MD",
    "id": 88,
    "city": "Silver Spring",
    "state": "MD"
  },
  {
    "title": "Best Halal Burgers in Chelmsford, Essex | Nash & Smashed",
    "seo_friendly_url": "halal-burgers/chelmsford-essex",
    "keyword": "Halal Burgers",
    "location": "Chelmsford Essex",
    "id": 87,
    "city": "Chelmsford",
    "state": "Essex"
  },
  {
    "title": "Best Best Smashed Burgers in Norfolk, VA | Nash & Smashed",
    "seo_friendly_url": "best-smashed-burgers/norfolk-va",
    "keyword": "Best Smashed Burgers",
    "location": "Norfolk VA",
    "id": 86,
    "city": "Norfolk",
    "state": "VA"
  },
  {
    "title": "Best Best Chicken Tenders in Hampton, VA | Nash & Smashed",
    "seo_friendly_url": "best-chicken-tenders/hampton-va",
    "keyword": "Best Chicken Tenders",
    "location": "Hampton VA",
    "id": 85,
    "city": "Hampton",
    "state": "VA"
  },
  {
    "title": "Best Best Nashville Sandwiches in Hampton, VA | Nash & Smashed",
    "seo_friendly_url": "best-nashville-sandwiches/hampton-va",
    "keyword": "Best Nashville Sandwiches",
    "location": "Hampton VA",
    "id": 84,
    "city": "Hampton",
    "state": "VA"
  },
  {
    "title": "Best Halal Burgers in Manassas, VA | Nash & Smashed",
    "seo_friendly_url": "halal-burgers/manassas-va",
    "keyword": "Halal Burgers",
    "location": "Manassas VA",
    "id": 83,
    "city": "Manassas",
    "state": "VA"
  },
  {
    "title": "Best Quick Bites in Dumfries, VA | Nash & Smashed",
    "seo_friendly_url": "quick-bites/dumfries-va",
    "keyword": "Quick Bites",
    "location": "Dumfries VA",
    "id": 82,
    "city": "Dumfries",
    "state": "VA"
  },
  {
    "title": "Best Best Chicken Wings in Manassas, VA | Nash & Smashed",
    "seo_friendly_url": "best-chicken-wings/manassas-va",
    "keyword": "Best Chicken Wings",
    "location": "Manassas VA",
    "id": 81,
    "city": "Manassas",
    "state": "VA"
  },
  {
    "title": "Best Family Friendly restaurant in Connecticut Ave NW, DC | Nash & Smashed",
    "seo_friendly_url": "family-friendly-restaurant/connecticut-ave-nw-dc",
    "keyword": "Family Friendly restaurant",
    "location": "Connecticut Ave NW DC",
    "id": 80,
    "city": "Connecticut Ave NW",
    "state": "DC"
  },
  {
    "title": "Best Gourmet Burgers Restaurant in Norfolk, VA | Nash & Smashed",
    "seo_friendly_url": "gourmet-burgers-restaurant/norfolk-va",
    "keyword": "Gourmet Burgers Restaurant",
    "location": "Norfolk VA",
    "id": 79,
    "city": "Norfolk",
    "state": "VA"
  },
  {
    "title": "Best Craft Mocktails in Manassas, VA | Nash & Smashed",
    "seo_friendly_url": "craft-mocktails/manassas-va",
    "keyword": "Craft Mocktails",
    "location": "Manassas VA",
    "id": 78,
    "city": "Manassas",
    "state": "VA"
  },
  {
    "title": "Best Gourmet Burgers Restaurant in Manassas, VA | Nash & Smashed",
    "seo_friendly_url": "gourmet-burgers-restaurant/manassas-va",
    "keyword": "Gourmet Burgers Restaurant",
    "location": "Manassas VA",
    "id": 77,
    "city": "Manassas",
    "state": "VA"
  },
  {
    "title": "Best Best fried Chicken in Connecticut Ave NW, DC | Nash & Smashed",
    "seo_friendly_url": "best-fried-chicken/connecticut-ave-nw-dc",
    "keyword": "Best fried Chicken",
    "location": "Connecticut Ave NW DC",
    "id": 76,
    "city": "Connecticut Ave NW",
    "state": "DC"
  },
  {
    "title": "Best Finger Licking Fried Chicken in Chelmsford, Essex | Nash & Smashed",
    "seo_friendly_url": "finger-licking-fried-chicken/chelmsford-essex",
    "keyword": "Finger Licking Fried Chicken",
    "location": "Chelmsford Essex",
    "id": 75,
    "city": "Chelmsford",
    "state": "Essex"
  },
  {
    "title": "Best Best waffles in town in Silver Spring, MD | Nash & Smashed",
    "seo_friendly_url": "best-waffles-in-town/silver-spring-md",
    "keyword": "Best waffles in town",
    "location": "Silver Spring MD",
    "id": 74,
    "city": "Silver Spring",
    "state": "MD"
  },
  {
    "title": "Best Halal American Restaurant in Manassas, VA | Nash & Smashed",
    "seo_friendly_url": "halal-american-restaurant/manassas-va",
    "keyword": "Halal American Restaurant",
    "location": "Manassas VA",
    "id": 73,
    "city": "Manassas",
    "state": "VA"
  },
  {
    "title": "Best Gourmet Burgers Restaurant in Hampton, VA | Nash & Smashed",
    "seo_friendly_url": "gourmet-burgers-restaurant/hampton-va",
    "keyword": "Gourmet Burgers Restaurant",
    "location": "Hampton VA",
    "id": 72,
    "city": "Hampton",
    "state": "VA"
  },
  {
    "title": "Best Gourmet Burgers Restaurant in Dumfries, VA | Nash & Smashed",
    "seo_friendly_url": "gourmet-burgers-restaurant/dumfries-va",
    "keyword": "Gourmet Burgers Restaurant",
    "location": "Dumfries VA",
    "id": 71,
    "city": "Dumfries",
    "state": "VA"
  },
  {
    "title": "Best Open Till Late in Norfolk, VA | Nash & Smashed",
    "seo_friendly_url": "open-till-late/norfolk-va",
    "keyword": "Open Till Late",
    "location": "Norfolk VA",
    "id": 70,
    "city": "Norfolk",
    "state": "VA"
  },
  {
    "title": "Best Best fried Chicken in Manassas, VA | Nash & Smashed",
    "seo_friendly_url": "best-fried-chicken/manassas-va",
    "keyword": "Best fried Chicken",
    "location": "Manassas VA",
    "id": 69,
    "city": "Manassas",
    "state": "VA"
  },
  {
    "title": "Best Quick Bites in Silver Spring, MD | Nash & Smashed",
    "seo_friendly_url": "quick-bites/silver-spring-md",
    "keyword": "Quick Bites",
    "location": "Silver Spring MD",
    "id": 68,
    "city": "Silver Spring",
    "state": "MD"
  },
  {
    "title": "Best Best fried Chicken in Baltimore, MD | Nash & Smashed",
    "seo_friendly_url": "best-fried-chicken/baltimore-md",
    "keyword": "Best fried Chicken",
    "location": "Baltimore MD",
    "id": 67,
    "city": "Baltimore",
    "state": "MD"
  },
  {
    "title": "Best Best fried Chicken in Dumfries, VA | Nash & Smashed",
    "seo_friendly_url": "best-fried-chicken/dumfries-va",
    "keyword": "Best fried Chicken",
    "location": "Dumfries VA",
    "id": 66,
    "city": "Dumfries",
    "state": "VA"
  },
  {
    "title": "Best Fast Food in Dumfries, VA | Nash & Smashed",
    "seo_friendly_url": "fast-food/dumfries-va",
    "keyword": "Fast Food",
    "location": "Dumfries VA",
    "id": 65,
    "city": "Dumfries",
    "state": "VA"
  },
  {
    "title": "Best Dine in & Takeout Restaurant in Norfolk, VA | Nash & Smashed",
    "seo_friendly_url": "dine-in-takeout-restaurant/norfolk-va",
    "keyword": "Dine in & Takeout Restaurant",
    "location": "Norfolk VA",
    "id": 64,
    "city": "Norfolk",
    "state": "VA"
  },
  {
    "title": "Best Best Halal Restaurant in Chelmsford, Essex | Nash & Smashed",
    "seo_friendly_url": "best-halal-restaurant/chelmsford-essex",
    "keyword": "Best Halal Restaurant",
    "location": "Chelmsford Essex",
    "id": 63,
    "city": "Chelmsford",
    "state": "Essex"
  },
  {
    "title": "Best Halal Fried Chicken in Chelmsford, Essex | Nash & Smashed",
    "seo_friendly_url": "halal-fried-chicken/chelmsford-essex",
    "keyword": "Halal Fried Chicken",
    "location": "Chelmsford Essex",
    "id": 62,
    "city": "Chelmsford",
    "state": "Essex"
  },
  {
    "title": "Best Best waffles in town in Manassas, VA | Nash & Smashed",
    "seo_friendly_url": "best-waffles-in-town/manassas-va",
    "keyword": "Best waffles in town",
    "location": "Manassas VA",
    "id": 61,
    "city": "Manassas",
    "state": "VA"
  },
  {
    "title": "Best Best Smashed Burgers in Silver Spring, MD | Nash & Smashed",
    "seo_friendly_url": "best-smashed-burgers/silver-spring-md",
    "keyword": "Best Smashed Burgers",
    "location": "Silver Spring MD",
    "id": 60,
    "city": "Silver Spring",
    "state": "MD"
  },
  {
    "title": "Best Best Smashed Burgers in Connecticut Ave NW, DC | Nash & Smashed",
    "seo_friendly_url": "best-smashed-burgers/connecticut-ave-nw-dc",
    "keyword": "Best Smashed Burgers",
    "location": "Connecticut Ave NW DC",
    "id": 59,
    "city": "Connecticut Ave NW",
    "state": "DC"
  },
  {
    "title": "Best Best Halal Restaurant in Norfolk, VA | Nash & Smashed",
    "seo_friendly_url": "best-halal-restaurant/norfolk-va",
    "keyword": "Best Halal Restaurant",
    "location": "Norfolk VA",
    "id": 58,
    "city": "Norfolk",
    "state": "VA"
  },
  {
    "title": "Best Family Friendly restaurant in Hampton, VA | Nash & Smashed",
    "seo_friendly_url": "family-friendly-restaurant/hampton-va",
    "keyword": "Family Friendly restaurant",
    "location": "Hampton VA",
    "id": 57,
    "city": "Hampton",
    "state": "VA"
  },
  {
    "title": "Best Best Halal Restaurant in Baltimore, MD | Nash & Smashed",
    "seo_friendly_url": "best-halal-restaurant/baltimore-md",
    "keyword": "Best Halal Restaurant",
    "location": "Baltimore MD",
    "id": 56,
    "city": "Baltimore",
    "state": "MD"
  },
  {
    "title": "Best Finger Licking Fried Chicken in Manassas, VA | Nash & Smashed",
    "seo_friendly_url": "finger-licking-fried-chicken/manassas-va",
    "keyword": "Finger Licking Fried Chicken",
    "location": "Manassas VA",
    "id": 55,
    "city": "Manassas",
    "state": "VA"
  },
  {
    "title": "Best Finger Licking Fried Chicken in Dumfries, VA | Nash & Smashed",
    "seo_friendly_url": "finger-licking-fried-chicken/dumfries-va",
    "keyword": "Finger Licking Fried Chicken",
    "location": "Dumfries VA",
    "id": 54,
    "city": "Dumfries",
    "state": "VA"
  },
  {
    "title": "Best Finger Licking Fried Chicken in Silver Spring, MD | Nash & Smashed",
    "seo_friendly_url": "finger-licking-fried-chicken/silver-spring-md",
    "keyword": "Finger Licking Fried Chicken",
    "location": "Silver Spring MD",
    "id": 53,
    "city": "Silver Spring",
    "state": "MD"
  },
  {
    "title": "Best Best Milk Shakes in Hampton, VA | Nash & Smashed",
    "seo_friendly_url": "best-milk-shakes/hampton-va",
    "keyword": "Best Milk Shakes",
    "location": "Hampton VA",
    "id": 52,
    "city": "Hampton",
    "state": "VA"
  },
  {
    "title": "Best Best Chicken Wings in Connecticut Ave NW, DC | Nash & Smashed",
    "seo_friendly_url": "best-chicken-wings/connecticut-ave-nw-dc",
    "keyword": "Best Chicken Wings",
    "location": "Connecticut Ave NW DC",
    "id": 51,
    "city": "Connecticut Ave NW",
    "state": "DC"
  },
  {
    "title": "Best Best fried Chicken in Chelmsford, Essex | Nash & Smashed",
    "seo_friendly_url": "best-fried-chicken/chelmsford-essex",
    "keyword": "Best fried Chicken",
    "location": "Chelmsford Essex",
    "id": 50,
    "city": "Chelmsford",
    "state": "Essex"
  },
  {
    "title": "Best Best Nashville Sandwiches in Manassas, VA | Nash & Smashed",
    "seo_friendly_url": "best-nashville-sandwiches/manassas-va",
    "keyword": "Best Nashville Sandwiches",
    "location": "Manassas VA",
    "id": 49,
    "city": "Manassas",
    "state": "VA"
  },
  {
    "title": "Best Best Smashed Burgers in Baltimore, MD | Nash & Smashed",
    "seo_friendly_url": "best-smashed-burgers/baltimore-md",
    "keyword": "Best Smashed Burgers",
    "location": "Baltimore MD",
    "id": 48,
    "city": "Baltimore",
    "state": "MD"
  },
  {
    "title": "Best Halal American Restaurant in Dumfries, VA | Nash & Smashed",
    "seo_friendly_url": "halal-american-restaurant/dumfries-va",
    "keyword": "Halal American Restaurant",
    "location": "Dumfries VA",
    "id": 47,
    "city": "Dumfries",
    "state": "VA"
  },
  {
    "title": "Best Best Chicken Tenders in Baltimore, MD | Nash & Smashed",
    "seo_friendly_url": "best-chicken-tenders/baltimore-md",
    "keyword": "Best Chicken Tenders",
    "location": "Baltimore MD",
    "id": 46,
    "city": "Baltimore",
    "state": "MD"
  },
  {
    "title": "Best Halal Burgers in Connecticut Ave NW, DC | Nash & Smashed",
    "seo_friendly_url": "halal-burgers/connecticut-ave-nw-dc",
    "keyword": "Halal Burgers",
    "location": "Connecticut Ave NW DC",
    "id": 45,
    "city": "Connecticut Ave NW",
    "state": "DC"
  },
  {
    "title": "Best Dine in & Takeout Restaurant in Manassas, VA | Nash & Smashed",
    "seo_friendly_url": "dine-in-takeout-restaurant/manassas-va",
    "keyword": "Dine in & Takeout Restaurant",
    "location": "Manassas VA",
    "id": 44,
    "city": "Manassas",
    "state": "VA"
  },
  {
    "title": "Best Best Chicken Tenders in Norfolk, VA | Nash & Smashed",
    "seo_friendly_url": "best-chicken-tenders/norfolk-va",
    "keyword": "Best Chicken Tenders",
    "location": "Norfolk VA",
    "id": 43,
    "city": "Norfolk",
    "state": "VA"
  },
  {
    "title": "Best Halal Desi Restaurant in Silver Spring, MD | Nash & Smashed",
    "seo_friendly_url": "halal-desi-restaurant/silver-spring-md",
    "keyword": "Halal Desi Restaurant",
    "location": "Silver Spring MD",
    "id": 42,
    "city": "Silver Spring",
    "state": "MD"
  },
  {
    "title": "Best Best waffles in town in Connecticut Ave NW, DC | Nash & Smashed",
    "seo_friendly_url": "best-waffles-in-town/connecticut-ave-nw-dc",
    "keyword": "Best waffles in town",
    "location": "Connecticut Ave NW DC",
    "id": 41,
    "city": "Connecticut Ave NW",
    "state": "DC"
  },
  {
    "title": "Best Halal Fried Chicken in Manassas, VA | Nash & Smashed",
    "seo_friendly_url": "halal-fried-chicken/manassas-va",
    "keyword": "Halal Fried Chicken",
    "location": "Manassas VA",
    "id": 40,
    "city": "Manassas",
    "state": "VA"
  },
  {
    "title": "Best Best Chicken Wings in Hampton, VA | Nash & Smashed",
    "seo_friendly_url": "best-chicken-wings/hampton-va",
    "keyword": "Best Chicken Wings",
    "location": "Hampton VA",
    "id": 39,
    "city": "Hampton",
    "state": "VA"
  },
  {
    "title": "Best Best waffles in town in Norfolk, VA | Nash & Smashed",
    "seo_friendly_url": "best-waffles-in-town/norfolk-va",
    "keyword": "Best waffles in town",
    "location": "Norfolk VA",
    "id": 38,
    "city": "Norfolk",
    "state": "VA"
  },
  {
    "title": "Best Halal American Restaurant in Baltimore, MD | Nash & Smashed",
    "seo_friendly_url": "halal-american-restaurant/baltimore-md",
    "keyword": "Halal American Restaurant",
    "location": "Baltimore MD",
    "id": 37,
    "city": "Baltimore",
    "state": "MD"
  },
  {
    "title": "Best Best Milk Shakes in Manassas, VA | Nash & Smashed",
    "seo_friendly_url": "best-milk-shakes/manassas-va",
    "keyword": "Best Milk Shakes",
    "location": "Manassas VA",
    "id": 36,
    "city": "Manassas",
    "state": "VA"
  },
  {
    "title": "Best Quick Bites in Connecticut Ave NW, DC | Nash & Smashed",
    "seo_friendly_url": "quick-bites/connecticut-ave-nw-dc",
    "keyword": "Quick Bites",
    "location": "Connecticut Ave NW DC",
    "id": 35,
    "city": "Connecticut Ave NW",
    "state": "DC"
  },
  {
    "title": "Best Dine in & Takeout Restaurant in Baltimore, MD | Nash & Smashed",
    "seo_friendly_url": "dine-in-takeout-restaurant/baltimore-md",
    "keyword": "Dine in & Takeout Restaurant",
    "location": "Baltimore MD",
    "id": 34,
    "city": "Baltimore",
    "state": "MD"
  },
  {
    "title": "Best Craft Mocktails in Hampton, VA | Nash & Smashed",
    "seo_friendly_url": "craft-mocktails/hampton-va",
    "keyword": "Craft Mocktails",
    "location": "Hampton VA",
    "id": 33,
    "city": "Hampton",
    "state": "VA"
  },
  {
    "title": "Best Halal Fried Chicken in Hampton, VA | Nash & Smashed",
    "seo_friendly_url": "halal-fried-chicken/hampton-va",
    "keyword": "Halal Fried Chicken",
    "location": "Hampton VA",
    "id": 32,
    "city": "Hampton",
    "state": "VA"
  },
  {
    "title": "Best Open Till Late in Hampton, VA | Nash & Smashed",
    "seo_friendly_url": "open-till-late/hampton-va",
    "keyword": "Open Till Late",
    "location": "Hampton VA",
    "id": 31,
    "city": "Hampton",
    "state": "VA"
  },
  {
    "title": "Best Dine in & Takeout Restaurant in Dumfries, VA | Nash & Smashed",
    "seo_friendly_url": "dine-in-takeout-restaurant/dumfries-va",
    "keyword": "Dine in & Takeout Restaurant",
    "location": "Dumfries VA",
    "id": 30,
    "city": "Dumfries",
    "state": "VA"
  },
  {
    "title": "Best Best Nashville Sandwiches in Baltimore, MD | Nash & Smashed",
    "seo_friendly_url": "best-nashville-sandwiches/baltimore-md",
    "keyword": "Best Nashville Sandwiches",
    "location": "Baltimore MD",
    "id": 29,
    "city": "Baltimore",
    "state": "MD"
  },
  {
    "title": "Best Gourmet Burgers Restaurant in Connecticut Ave NW, DC | Nash & Smashed",
    "seo_friendly_url": "gourmet-burgers-restaurant/connecticut-ave-nw-dc",
    "keyword": "Gourmet Burgers Restaurant",
    "location": "Connecticut Ave NW DC",
    "id": 28,
    "city": "Connecticut Ave NW",
    "state": "DC"
  },
  {
    "title": "Best Best in Town Fried chicken & Burgers in Silver Spring, MD | Nash & Smashed",
    "seo_friendly_url": "best-in-town-fried-chicken-burgers/silver-spring-md",
    "keyword": "Best in Town Fried chicken & Burgers",
    "location": "Silver Spring MD",
    "id": 27,
    "city": "Silver Spring",
    "state": "MD"
  },
  {
    "title": "Best Family Friendly restaurant in Manassas, VA | Nash & Smashed",
    "seo_friendly_url": "family-friendly-restaurant/manassas-va",
    "keyword": "Family Friendly restaurant",
    "location": "Manassas VA",
    "id": 26,
    "city": "Manassas",
    "state": "VA"
  },
  {
    "title": "Best Craft Mocktails in Norfolk, VA | Nash & Smashed",
    "seo_friendly_url": "craft-mocktails/norfolk-va",
    "keyword": "Craft Mocktails",
    "location": "Norfolk VA",
    "id": 25,
    "city": "Norfolk",
    "state": "VA"
  },
  {
    "title": "Best Halal Desi Restaurant in Hampton, VA | Nash & Smashed",
    "seo_friendly_url": "halal-desi-restaurant/hampton-va",
    "keyword": "Halal Desi Restaurant",
    "location": "Hampton VA",
    "id": 24,
    "city": "Hampton",
    "state": "VA"
  },
  {
    "title": "Best Craft Mocktails in Dumfries, VA | Nash & Smashed",
    "seo_friendly_url": "craft-mocktails/dumfries-va",
    "keyword": "Craft Mocktails",
    "location": "Dumfries VA",
    "id": 23,
    "city": "Dumfries",
    "state": "VA"
  },
  {
    "title": "Best Best Chicken Wings in Baltimore, MD | Nash & Smashed",
    "seo_friendly_url": "best-chicken-wings/baltimore-md",
    "keyword": "Best Chicken Wings",
    "location": "Baltimore MD",
    "id": 22,
    "city": "Baltimore",
    "state": "MD"
  },
  {
    "title": "Best Best Milk Shakes in Baltimore, MD | Nash & Smashed",
    "seo_friendly_url": "best-milk-shakes/baltimore-md",
    "keyword": "Best Milk Shakes",
    "location": "Baltimore MD",
    "id": 21,
    "city": "Baltimore",
    "state": "MD"
  },
  {
    "title": "Best Halal Desi Restaurant in Dumfries, VA | Nash & Smashed",
    "seo_friendly_url": "halal-desi-restaurant/dumfries-va",
    "keyword": "Halal Desi Restaurant",
    "location": "Dumfries VA",
    "id": 20,
    "city": "Dumfries",
    "state": "VA"
  },
  {
    "title": "Best Finger Licking Fried Chicken in Connecticut Ave NW, DC | Nash & Smashed",
    "seo_friendly_url": "finger-licking-fried-chicken/connecticut-ave-nw-dc",
    "keyword": "Finger Licking Fried Chicken",
    "location": "Connecticut Ave NW DC",
    "id": 19,
    "city": "Connecticut Ave NW",
    "state": "DC"
  },
  {
    "title": "Best Halal American Restaurant in Norfolk, VA | Nash & Smashed",
    "seo_friendly_url": "halal-american-restaurant/norfolk-va",
    "keyword": "Halal American Restaurant",
    "location": "Norfolk VA",
    "id": 18,
    "city": "Norfolk",
    "state": "VA"
  },
  {
    "title": "Best Quick Bites in Chelmsford, Essex | Nash & Smashed",
    "seo_friendly_url": "quick-bites/chelmsford-essex",
    "keyword": "Quick Bites",
    "location": "Chelmsford Essex",
    "id": 17,
    "city": "Chelmsford",
    "state": "Essex"
  },
  {
    "title": "Best Best Milk Shakes in Chelmsford, Essex | Nash & Smashed",
    "seo_friendly_url": "best-milk-shakes/chelmsford-essex",
    "keyword": "Best Milk Shakes",
    "location": "Chelmsford Essex",
    "id": 16,
    "city": "Chelmsford",
    "state": "Essex"
  },
  {
    "title": "Best Best Nashville Sandwiches in Norfolk, VA | Nash & Smashed",
    "seo_friendly_url": "best-nashville-sandwiches/norfolk-va",
    "keyword": "Best Nashville Sandwiches",
    "location": "Norfolk VA",
    "id": 15,
    "city": "Norfolk",
    "state": "VA"
  },
  {
    "title": "Best Best in Town Fried chicken & Burgers in Hampton, VA | Nash & Smashed",
    "seo_friendly_url": "best-in-town-fried-chicken-burgers/hampton-va",
    "keyword": "Best in Town Fried chicken & Burgers",
    "location": "Hampton VA",
    "id": 14,
    "city": "Hampton",
    "state": "VA"
  },
  {
    "title": "Best Best waffles in town in Hampton, VA | Nash & Smashed",
    "seo_friendly_url": "best-waffles-in-town/hampton-va",
    "keyword": "Best waffles in town",
    "location": "Hampton VA",
    "id": 13,
    "city": "Hampton",
    "state": "VA"
  },
  {
    "title": "Best Fast Food in Norfolk, VA | Nash & Smashed",
    "seo_friendly_url": "fast-food/norfolk-va",
    "keyword": "Fast Food",
    "location": "Norfolk VA",
    "id": 12,
    "city": "Norfolk",
    "state": "VA"
  },
  {
    "title": "Best Family Friendly restaurant in Dumfries, VA | Nash & Smashed",
    "seo_friendly_url": "family-friendly-restaurant/dumfries-va",
    "keyword": "Family Friendly restaurant",
    "location": "Dumfries VA",
    "id": 11,
    "city": "Dumfries",
    "state": "VA"
  },
  {
    "title": "Best Dine in & Takeout Restaurant in Silver Spring, MD | Nash & Smashed",
    "seo_friendly_url": "dine-in-takeout-restaurant/silver-spring-md",
    "keyword": "Dine in & Takeout Restaurant",
    "location": "Silver Spring MD",
    "id": 10,
    "city": "Silver Spring",
    "state": "MD"
  },
  {
    "title": "Best Best Smashed Burgers in Dumfries, VA | Nash & Smashed",
    "seo_friendly_url": "best-smashed-burgers/dumfries-va",
    "keyword": "Best Smashed Burgers",
    "location": "Dumfries VA",
    "id": 9,
    "city": "Dumfries",
    "state": "VA"
  },
  {
    "title": "Best Fast Food in Manassas, VA | Nash & Smashed",
    "seo_friendly_url": "fast-food/manassas-va",
    "keyword": "Fast Food",
    "location": "Manassas VA",
    "id": 8,
    "city": "Manassas",
    "state": "VA"
  },
  {
    "title": "Best Halal Burgers in Hampton, VA | Nash & Smashed",
    "seo_friendly_url": "halal-burgers/hampton-va",
    "keyword": "Halal Burgers",
    "location": "Hampton VA",
    "id": 7,
    "city": "Hampton",
    "state": "VA"
  },
  {
    "title": "Best Best Chicken Tenders in Dumfries, VA | Nash & Smashed",
    "seo_friendly_url": "best-chicken-tenders/dumfries-va",
    "keyword": "Best Chicken Tenders",
    "location": "Dumfries VA",
    "id": 6,
    "city": "Dumfries",
    "state": "VA"
  },
  {
    "title": "Best Best Smashed Burgers in Hampton, VA | Nash & Smashed",
    "seo_friendly_url": "best-smashed-burgers/hampton-va",
    "keyword": "Best Smashed Burgers",
    "location": "Hampton VA",
    "id": 5,
    "city": "Hampton",
    "state": "VA"
  },
  {
    "title": "Best Gourmet Burgers Restaurant in Baltimore, MD | Nash & Smashed",
    "seo_friendly_url": "gourmet-burgers-restaurant/baltimore-md",
    "keyword": "Gourmet Burgers Restaurant",
    "location": "Baltimore MD",
    "id": 4,
    "city": "Baltimore",
    "state": "MD"
  },
  {
    "title": "Best Best Milk Shakes in Silver Spring, MD | Nash & Smashed",
    "seo_friendly_url": "best-milk-shakes/silver-spring-md",
    "keyword": "Best Milk Shakes",
    "location": "Silver Spring MD",
    "id": 3,
    "city": "Silver Spring",
    "state": "MD"
  },
  {
    "title": "Best Best in Town Fried chicken & Burgers in Dumfries, VA | Nash & Smashed",
    "seo_friendly_url": "best-in-town-fried-chicken-burgers/dumfries-va",
    "keyword": "Best in Town Fried chicken & Burgers",
    "location": "Dumfries VA",
    "id": 2,
    "city": "Dumfries",
    "state": "VA"
  },
  {
    "title": "Best Halal Fried Chicken in Baltimore, MD | Nash & Smashed",
    "seo_friendly_url": "halal-fried-chicken/baltimore-md",
    "keyword": "Halal Fried Chicken",
    "location": "Baltimore MD",
    "id": 1,
    "city": "Baltimore",
    "state": "MD"
  }
]